[
  {
    "name": "Zipaquirá",
    "country": "CO",
    "featureCode": "PPL",
    "adminCode": "33",
    "population": 91235,
    "lat": 5.02208,
    "lon": -74.00481,
    "selectable": false
  },
  {
    "name": "Zipacón",
    "country": "CO",
    "featureCode": "PPL",
    "adminCode": "33",
    "population": 1480,
    "lat": 4.75881,
    "lon": -74.38017,
    "selectable": false
  },
  {
    "name": "Zetaquira",
    "country": "CO",
    "featureCode": "PPL",
    "adminCode": "36",
    "population": 1047,
    "lat": 5.28215,
    "lon": -73.16896,
    "selectable": false
  },
  {
    "name": "Zarzal",
    "country": "CO",
    "featureCode": "PPL",
    "adminCode": "29",
    "population": 28761,
    "lat": 4.39462,
    "lon": -76.0715,
    "selectable": false
  },
  {
    "name": "Zaragoza",
    "country": "CO",
    "featureCode": "PPL",
    "adminCode": "02",
    "population": 18795,
    "lat": 7.48971,
    "lon": -74.86919,
    "selectable": false
  },
  {
    "name": "Zapatoca",
    "country": "CO",
    "featureCode": "PPL",
    "adminCode": "26",
    "population": 6052,
    "lat": 6.81532,
    "lon": -73.26768,
    "selectable": false
  },
  {
    "name": "Zambrano",
    "country": "CO",
    "featureCode": "PPL",
    "adminCode": "38",
    "population": 9565,
    "lat": 9.74724,
    "lon": -74.8153,
    "selectable": false
  },
  {
    "name": "Yumbo",
    "country": "CO",
    "featureCode": "PPL",
    "adminCode": "29",
    "population": 71436,
    "lat": 3.58234,
    "lon": -76.49146,
    "selectable": false
  },
  {
    "name": "Yotoco",
    "country": "CO",
    "featureCode": "PPL",
    "adminCode": "29",
    "population": 8362,
    "lat": 3.86048,
    "lon": -76.38364,
    "selectable": false
  },
  {
    "name": "Yopal",
    "country": "CO",
    "featureCode": "PPLA",
    "adminCode": "32",
    "population": 61029,
    "lat": 5.33775,
    "lon": -72.39586,
    "selectable": false
  },
  {
    "name": "Yondó",
    "country": "CO",
    "featureCode": "PPL",
    "adminCode": "02",
    "population": 7516,
    "lat": 7.00621,
    "lon": -73.90972,
    "selectable": false
  },
  {
    "name": "Yolombó",
    "country": "CO",
    "featureCode": "PPL",
    "adminCode": "02",
    "population": 6033,
    "lat": 6.59841,
    "lon": -75.0114,
    "selectable": false
  },
  {
    "name": "Yarumal",
    "country": "CO",
    "featureCode": "PPL",
    "adminCode": "02",
    "population": 22368,
    "lat": 6.96321,
    "lon": -75.41738,
    "selectable": false
  },
  {
    "name": "Yalí",
    "country": "CO",
    "featureCode": "PPL",
    "adminCode": "02",
    "population": 3908,
    "lat": 6.67456,
    "lon": -74.8343,
    "selectable": false
  },
  {
    "name": "Yaguará",
    "country": "CO",
    "featureCode": "PPL",
    "adminCode": "16",
    "population": 5724,
    "lat": 2.66355,
    "lon": -75.51753,
    "selectable": false
  },
  {
    "name": "Yacuanquer",
    "country": "CO",
    "featureCode": "PPL",
    "adminCode": "20",
    "population": 2643,
    "lat": 1.11577,
    "lon": -77.40169,
    "selectable": false
  },
  {
    "name": "Yacopí",
    "country": "CO",
    "featureCode": "PPL",
    "adminCode": "33",
    "population": 3202,
    "lat": 5.45948,
    "lon": -74.33823,
    "selectable": false
  },
  {
    "name": "Viterbo",
    "country": "CO",
    "featureCode": "PPL",
    "adminCode": "37",
    "population": 15216,
    "lat": 5.06242,
    "lon": -75.87159,
    "selectable": false
  },
  {
    "name": "Vista Hermosa",
    "country": "CO",
    "featureCode": "PPL",
    "adminCode": "19",
    "population": 4282,
    "lat": 3.12428,
    "lon": -73.75156,
    "selectable": false
  },
  {
    "name": "Viotá",
    "country": "CO",
    "featureCode": "PPL",
    "adminCode": "33",
    "population": 5840,
    "lat": 4.43713,
    "lon": -74.52157,
    "selectable": false
  },
  {
    "name": "Villeta",
    "country": "CO",
    "featureCode": "PPL",
    "adminCode": "33",
    "population": 20689,
    "lat": 5.00886,
    "lon": -74.47226,
    "selectable": false
  },
  {
    "name": "Villavieja",
    "country": "CO",
    "featureCode": "PPL",
    "adminCode": "16",
    "population": 2730,
    "lat": 3.22052,
    "lon": -75.21864,
    "selectable": false
  },
  {
    "name": "Villavicencio",
    "country": "CO",
    "featureCode": "PPLA",
    "adminCode": "19",
    "population": 321717,
    "lat": 4.142,
    "lon": -73.62664,
    "selectable": false
  },
  {
    "name": "Villarrica",
    "country": "CO",
    "featureCode": "PPL",
    "adminCode": "28",
    "population": 3081,
    "lat": 3.93502,
    "lon": -74.60036,
    "selectable": false
  },
  {
    "name": "Villa del Rosario",
    "country": "CO",
    "featureCode": "PPL",
    "adminCode": "21",
    "population": 64951,
    "lat": 7.83389,
    "lon": -72.47417,
    "selectable": false
  },
  {
    "name": "Villapinzón",
    "country": "CO",
    "featureCode": "PPL",
    "adminCode": "33",
    "population": 5874,
    "lat": 5.21617,
    "lon": -73.5949,
    "selectable": false
  },
  {
    "name": "Villanueva",
    "country": "CO",
    "featureCode": "PPL",
    "adminCode": "17",
    "population": 18699,
    "lat": 10.60528,
    "lon": -72.98,
    "selectable": false
  },
  {
    "name": "Villanueva",
    "country": "CO",
    "featureCode": "PPL",
    "adminCode": "35",
    "population": 12791,
    "lat": 10.44361,
    "lon": -75.27306,
    "selectable": false
  },
  {
    "name": "Villanueva",
    "country": "CO",
    "featureCode": "PPL",
    "adminCode": "26",
    "population": 3707,
    "lat": 6.67169,
    "lon": -73.1742,
    "selectable": false
  },
  {
    "name": "Villanueva",
    "country": "CO",
    "featureCode": "PPL",
    "adminCode": "32",
    "population": 20032,
    "lat": 5.28333,
    "lon": -71.96667,
    "selectable": false
  },
  {
    "name": "Villamaría",
    "country": "CO",
    "featureCode": "PPL",
    "adminCode": "37",
    "population": 35302,
    "lat": 5.04492,
    "lon": -75.5146,
    "selectable": false
  },
  {
    "name": "Villahermosa",
    "country": "CO",
    "featureCode": "PPL",
    "adminCode": "28",
    "population": 4155,
    "lat": 5.03067,
    "lon": -75.11607,
    "selectable": false
  },
  {
    "name": "Villagarzón",
    "country": "CO",
    "featureCode": "PPL",
    "adminCode": "22",
    "population": 7015,
    "lat": 1.0375,
    "lon": -76.62667,
    "selectable": false
  },
  {
    "name": "Villa de Leiva",
    "country": "CO",
    "featureCode": "PPL",
    "adminCode": "36",
    "population": 5103,
    "lat": 5.645,
    "lon": -73.56667,
    "selectable": false
  },
  {
    "name": "Vijes",
    "country": "CO",
    "featureCode": "PPL",
    "adminCode": "29",
    "population": 4070,
    "lat": 3.69934,
    "lon": -76.4423,
    "selectable": false
  },
  {
    "name": "Vigía del Fuerte",
    "country": "CO",
    "featureCode": "PPL",
    "adminCode": "02",
    "population": 4638,
    "lat": 6.57891,
    "lon": -76.88628,
    "selectable": false
  },
  {
    "name": "Victoria",
    "country": "CO",
    "featureCode": "PPL",
    "adminCode": "37",
    "population": 4723,
    "lat": 5.31648,
    "lon": -74.91101,
    "selectable": false
  },
  {
    "name": "Vianí",
    "country": "CO",
    "featureCode": "PPL",
    "adminCode": "33",
    "population": 1586,
    "lat": 4.87384,
    "lon": -74.56244,
    "selectable": false
  },
  {
    "name": "Vetas",
    "country": "CO",
    "featureCode": "PPL",
    "adminCode": "26",
    "population": 1210,
    "lat": 7.30911,
    "lon": -72.87122,
    "selectable": false
  },
  {
    "name": "Versalles",
    "country": "CO",
    "featureCode": "PPL",
    "adminCode": "29",
    "population": 3542,
    "lat": 4.57544,
    "lon": -76.19814,
    "selectable": false
  },
  {
    "name": "Vergara",
    "country": "CO",
    "featureCode": "PPL",
    "adminCode": "33",
    "population": 2267,
    "lat": 5.11841,
    "lon": -74.34549,
    "selectable": false
  },
  {
    "name": "Ventaquemada",
    "country": "CO",
    "featureCode": "PPL",
    "adminCode": "36",
    "population": 1680,
    "lat": 5.36753,
    "lon": -73.52075,
    "selectable": false
  },
  {
    "name": "Venecia",
    "country": "CO",
    "featureCode": "PPL",
    "adminCode": "02",
    "population": 5462,
    "lat": 5.96278,
    "lon": -75.73806,
    "selectable": false
  },
  {
    "name": "Venecia",
    "country": "CO",
    "featureCode": "PPL",
    "adminCode": "33",
    "population": 1307,
    "lat": 4.08808,
    "lon": -74.47746,
    "selectable": false
  },
  {
    "name": "Venadillo",
    "country": "CO",
    "featureCode": "PPL",
    "adminCode": "28",
    "population": 11310,
    "lat": 4.7193,
    "lon": -74.92918,
    "selectable": false
  },
  {
    "name": "Vélez",
    "country": "CO",
    "featureCode": "PPL",
    "adminCode": "26",
    "population": 10905,
    "lat": 6.01335,
    "lon": -73.67352,
    "selectable": false
  },
  {
    "name": "Valparaíso",
    "country": "CO",
    "featureCode": "PPL",
    "adminCode": "02",
    "population": 3626,
    "lat": 5.615,
    "lon": -75.62422,
    "selectable": false
  },
  {
    "name": "Valparaíso",
    "country": "CO",
    "featureCode": "PPL",
    "adminCode": "08",
    "population": 3767,
    "lat": 1.19512,
    "lon": -75.70705,
    "selectable": false
  },
  {
    "name": "Valledupar",
    "country": "CO",
    "featureCode": "PPLA",
    "adminCode": "10",
    "population": 308237,
    "lat": 10.46314,
    "lon": -73.25322,
    "selectable": false
  },
  {
    "name": "Valle de San Juan",
    "country": "CO",
    "featureCode": "PPL",
    "adminCode": "28",
    "population": 1486,
    "lat": 4.19869,
    "lon": -75.11733,
    "selectable": false
  },
  {
    "name": "Valle de San José",
    "country": "CO",
    "featureCode": "PPL",
    "adminCode": "26",
    "population": 2522,
    "lat": 6.4475,
    "lon": -73.14361,
    "selectable": false
  },
  {
    "name": "Valencia",
    "country": "CO",
    "featureCode": "PPL",
    "adminCode": "12",
    "population": 10652,
    "lat": 8.25801,
    "lon": -76.14928,
    "selectable": false
  },
  {
    "name": "Valdivia",
    "country": "CO",
    "featureCode": "PPL",
    "adminCode": "02",
    "population": 3398,
    "lat": 7.28889,
    "lon": -75.39778,
    "selectable": false
  },
  {
    "name": "Utica",
    "country": "CO",
    "featureCode": "PPL",
    "adminCode": "33",
    "population": 2945,
    "lat": 5.18727,
    "lon": -74.48105,
    "selectable": false
  },
  {
    "name": "Usiacurí",
    "country": "CO",
    "featureCode": "PPL",
    "adminCode": "04",
    "population": 9146,
    "lat": 10.75,
    "lon": -74.98333,
    "selectable": false
  },
  {
    "name": "Urumita",
    "country": "CO",
    "featureCode": "PPL",
    "adminCode": "17",
    "population": 8509,
    "lat": 10.55894,
    "lon": -73.01232,
    "selectable": false
  },
  {
    "name": "Urrao",
    "country": "CO",
    "featureCode": "PPL",
    "adminCode": "02",
    "population": 18846,
    "lat": 6.3152,
    "lon": -76.1342,
    "selectable": false
  },
  {
    "name": "Uribia",
    "country": "CO",
    "featureCode": "PPL",
    "adminCode": "17",
    "population": 7519,
    "lat": 11.7139,
    "lon": -72.26604,
    "selectable": false
  },
  {
    "name": "Uramita",
    "country": "CO",
    "featureCode": "PPL",
    "adminCode": "02",
    "population": 2292,
    "lat": 6.89944,
    "lon": -76.17417,
    "selectable": false
  },
  {
    "name": "Ungia",
    "country": "CO",
    "featureCode": "PPL",
    "adminCode": "11",
    "population": 4179,
    "lat": 8.04335,
    "lon": -77.09453,
    "selectable": false
  },
  {
    "name": "Une",
    "country": "CO",
    "featureCode": "PPL",
    "adminCode": "33",
    "population": 3208,
    "lat": 4.40306,
    "lon": -74.02528,
    "selectable": false
  },
  {
    "name": "Umbita",
    "country": "CO",
    "featureCode": "PPL",
    "adminCode": "33",
    "population": 1295,
    "lat": 5.22041,
    "lon": -73.45695,
    "selectable": false
  },
  {
    "name": "Ulloa",
    "country": "CO",
    "featureCode": "PPL",
    "adminCode": "29",
    "population": 2621,
    "lat": 4.70444,
    "lon": -75.74028,
    "selectable": false
  },
  {
    "name": "Ubaté",
    "country": "CO",
    "featureCode": "PPL",
    "adminCode": "33",
    "population": 20485,
    "lat": 5.30933,
    "lon": -73.81574,
    "selectable": false
  },
  {
    "name": "Ubaque",
    "country": "CO",
    "featureCode": "PPL",
    "adminCode": "33",
    "population": 1009,
    "lat": 4.48668,
    "lon": -73.93748,
    "selectable": false
  },
  {
    "name": "Ubalá",
    "country": "CO",
    "featureCode": "PPL",
    "adminCode": "33",
    "population": 1886,
    "lat": 4.74778,
    "lon": -72.53694,
    "selectable": false
  },
  {
    "name": "Tuta",
    "country": "CO",
    "featureCode": "PPL",
    "adminCode": "36",
    "population": 1639,
    "lat": 5.68966,
    "lon": -73.22779,
    "selectable": false
  },
  {
    "name": "Turmequé",
    "country": "CO",
    "featureCode": "PPL",
    "adminCode": "36",
    "population": 2901,
    "lat": 5.3236,
    "lon": -73.49067,
    "selectable": false
  },
  {
    "name": "Turbo",
    "country": "CO",
    "featureCode": "PPL",
    "adminCode": "02",
    "population": 50508,
    "lat": 8.09368,
    "lon": -76.72691,
    "selectable": false
  },
  {
    "name": "Turbaná",
    "country": "CO",
    "featureCode": "PPL",
    "adminCode": "35",
    "population": 10235,
    "lat": 10.2717,
    "lon": -75.44222,
    "selectable": false
  },
  {
    "name": "Turbaco",
    "country": "CO",
    "featureCode": "PPL",
    "adminCode": "35",
    "population": 56171,
    "lat": 10.32944,
    "lon": -75.41137,
    "selectable": false
  },
  {
    "name": "Túquerres",
    "country": "CO",
    "featureCode": "PPL",
    "adminCode": "20",
    "population": 20184,
    "lat": 1.08878,
    "lon": -77.6183,
    "selectable": false
  },
  {
    "name": "Tunja",
    "country": "CO",
    "featureCode": "PPLA",
    "adminCode": "36",
    "population": 117479,
    "lat": 5.53528,
    "lon": -73.36778,
    "selectable": false
  },
  {
    "name": "Tumaco",
    "country": "CO",
    "featureCode": "PPL",
    "adminCode": "20",
    "population": 86713,
    "lat": 1.79861,
    "lon": -78.81556,
    "selectable": false
  },
  {
    "name": "Tuluá",
    "country": "CO",
    "featureCode": "PPL",
    "adminCode": "29",
    "population": 165501,
    "lat": 4.08466,
    "lon": -76.19536,
    "selectable": false
  },
  {
    "name": "Tubará",
    "country": "CO",
    "featureCode": "PPL",
    "adminCode": "04",
    "population": 8180,
    "lat": 10.87444,
    "lon": -74.97889,
    "selectable": false
  },
  {
    "name": "Trujillo",
    "country": "CO",
    "featureCode": "PPL",
    "adminCode": "29",
    "population": 5874,
    "lat": 4.21217,
    "lon": -76.31945,
    "selectable": false
  },
  {
    "name": "Trinidad",
    "country": "CO",
    "featureCode": "PPL",
    "adminCode": "32",
    "population": 4752,
    "lat": 5.43056,
    "lon": -71.63111,
    "selectable": false
  },
  {
    "name": "Totoró",
    "country": "CO",
    "featureCode": "PPL",
    "adminCode": "09",
    "population": 1888,
    "lat": 2.51204,
    "lon": -76.40124,
    "selectable": false
  },
  {
    "name": "Toro",
    "country": "CO",
    "featureCode": "PPLA2",
    "adminCode": "29",
    "population": 13764,
    "lat": 4.61167,
    "lon": -76.08139,
    "selectable": false
  },
  {
    "name": "Toribío",
    "country": "CO",
    "featureCode": "PPL",
    "adminCode": "09",
    "population": 3911,
    "lat": 2.95481,
    "lon": -76.26839,
    "selectable": false
  },
  {
    "name": "Topaipí",
    "country": "CO",
    "featureCode": "PPL",
    "adminCode": "33",
    "population": 1099,
    "lat": 5.33457,
    "lon": -74.30292,
    "selectable": false
  },
  {
    "name": "Tópaga",
    "country": "CO",
    "featureCode": "PPL",
    "adminCode": "36",
    "population": 1014,
    "lat": 5.75979,
    "lon": -72.82583,
    "selectable": false
  },
  {
    "name": "Toluviejo",
    "country": "CO",
    "featureCode": "PPL",
    "adminCode": "27",
    "population": 8260,
    "lat": 9.45082,
    "lon": -75.43864,
    "selectable": false
  },
  {
    "name": "Tolú",
    "country": "CO",
    "featureCode": "PPL",
    "adminCode": "27",
    "population": 27390,
    "lat": 9.52392,
    "lon": -75.58139,
    "selectable": false
  },
  {
    "name": "Toledo",
    "country": "CO",
    "featureCode": "PPL",
    "adminCode": "21",
    "population": 5911,
    "lat": 7.30984,
    "lon": -72.48295,
    "selectable": false
  },
  {
    "name": "Tocancipá",
    "country": "CO",
    "featureCode": "PPL",
    "adminCode": "33",
    "population": 6027,
    "lat": 4.96531,
    "lon": -73.91301,
    "selectable": false
  },
  {
    "name": "Tocaima",
    "country": "CO",
    "featureCode": "PPL",
    "adminCode": "33",
    "population": 10235,
    "lat": 4.4582,
    "lon": -74.63434,
    "selectable": false
  },
  {
    "name": "Toca",
    "country": "CO",
    "featureCode": "PPL",
    "adminCode": "36",
    "population": 3946,
    "lat": 5.56392,
    "lon": -73.18398,
    "selectable": false
  },
  {
    "name": "Titiribí",
    "country": "CO",
    "featureCode": "PPL",
    "adminCode": "02",
    "population": 3787,
    "lat": 6.06276,
    "lon": -75.7937,
    "selectable": false
  },
  {
    "name": "Tipacoque",
    "country": "CO",
    "featureCode": "PPL",
    "adminCode": "36",
    "population": 1036,
    "lat": 6.42031,
    "lon": -72.69184,
    "selectable": false
  },
  {
    "name": "Timbiquí",
    "country": "CO",
    "featureCode": "PPL",
    "adminCode": "09",
    "population": 6267,
    "lat": 2.7717,
    "lon": -77.66536,
    "selectable": false
  },
  {
    "name": "Timaná",
    "country": "CO",
    "featureCode": "PPL",
    "adminCode": "16",
    "population": 8203,
    "lat": 1.97136,
    "lon": -75.93123,
    "selectable": false
  },
  {
    "name": "Tierralta",
    "country": "CO",
    "featureCode": "PPL",
    "adminCode": "12",
    "population": 26242,
    "lat": 8.17361,
    "lon": -76.05917,
    "selectable": false
  },
  {
    "name": "Tibú",
    "country": "CO",
    "featureCode": "PPL",
    "adminCode": "21",
    "population": 13565,
    "lat": 8.63896,
    "lon": -72.73583,
    "selectable": false
  },
  {
    "name": "Tibasosa",
    "country": "CO",
    "featureCode": "PPL",
    "adminCode": "36",
    "population": 3535,
    "lat": 5.75,
    "lon": -73,
    "selectable": false
  },
  {
    "name": "Tibaná",
    "country": "CO",
    "featureCode": "PPL",
    "adminCode": "36",
    "population": 1802,
    "lat": 5.31728,
    "lon": -73.39655,
    "selectable": false
  },
  {
    "name": "Tesalia",
    "country": "CO",
    "featureCode": "PPL",
    "adminCode": "16",
    "population": 3981,
    "lat": 2.48587,
    "lon": -75.72921,
    "selectable": false
  },
  {
    "name": "Teruel",
    "country": "CO",
    "featureCode": "PPL",
    "adminCode": "16",
    "population": 3921,
    "lat": 2.74193,
    "lon": -75.56738,
    "selectable": false
  },
  {
    "name": "Tenza",
    "country": "CO",
    "featureCode": "PPL",
    "adminCode": "33",
    "population": 1312,
    "lat": 5.07664,
    "lon": -73.42077,
    "selectable": false
  },
  {
    "name": "Tenjo",
    "country": "CO",
    "featureCode": "PPL",
    "adminCode": "33",
    "population": 3858,
    "lat": 4.8727,
    "lon": -74.14435,
    "selectable": false
  },
  {
    "name": "Tello",
    "country": "CO",
    "featureCode": "PPL",
    "adminCode": "16",
    "population": 4868,
    "lat": 3.06694,
    "lon": -75.13778,
    "selectable": false
  },
  {
    "name": "Tauramena",
    "country": "CO",
    "featureCode": "PPL",
    "adminCode": "32",
    "population": 4805,
    "lat": 5.01831,
    "lon": -72.74919,
    "selectable": false
  },
  {
    "name": "Tasco",
    "country": "CO",
    "featureCode": "PPL",
    "adminCode": "36",
    "population": 1811,
    "lat": 5.91044,
    "lon": -72.78001,
    "selectable": false
  },
  {
    "name": "Tarso",
    "country": "CO",
    "featureCode": "PPL",
    "adminCode": "02",
    "population": 2700,
    "lat": 5.86467,
    "lon": -75.82192,
    "selectable": false
  },
  {
    "name": "Tarqui",
    "country": "CO",
    "featureCode": "PPL",
    "adminCode": "16",
    "population": 4144,
    "lat": 2.11248,
    "lon": -75.82419,
    "selectable": false
  },
  {
    "name": "Tarapacá",
    "country": "CO",
    "featureCode": "PPL",
    "adminCode": "01",
    "population": 3100,
    "lat": -2.87861,
    "lon": -69.74417,
    "selectable": false
  },
  {
    "name": "Tangua",
    "country": "CO",
    "featureCode": "PPL",
    "adminCode": "20",
    "population": 3348,
    "lat": 1.09473,
    "lon": -77.39482,
    "selectable": false
  },
  {
    "name": "Taminango",
    "country": "CO",
    "featureCode": "PPL",
    "adminCode": "20",
    "population": 2919,
    "lat": 1.57491,
    "lon": -77.28666,
    "selectable": false
  },
  {
    "name": "Támesis",
    "country": "CO",
    "featureCode": "PPL",
    "adminCode": "02",
    "population": 6406,
    "lat": 5.66462,
    "lon": -75.71339,
    "selectable": false
  },
  {
    "name": "Tame",
    "country": "CO",
    "featureCode": "PPL",
    "adminCode": "03",
    "population": 29099,
    "lat": 6.461,
    "lon": -71.73004,
    "selectable": false
  },
  {
    "name": "Tamara",
    "country": "CO",
    "featureCode": "PPL",
    "adminCode": "32",
    "population": 2007,
    "lat": 5.82972,
    "lon": -72.16333,
    "selectable": false
  },
  {
    "name": "Tamalameque",
    "country": "CO",
    "featureCode": "PPL",
    "adminCode": "10",
    "population": 4972,
    "lat": 8.85221,
    "lon": -73.81229,
    "selectable": false
  },
  {
    "name": "Talaigua Viejo",
    "country": "CO",
    "featureCode": "PPL",
    "adminCode": "35",
    "population": 6217,
    "lat": 9.31206,
    "lon": -74.58544,
    "selectable": false
  },
  {
    "name": "Tadó",
    "country": "CO",
    "featureCode": "PPL",
    "adminCode": "11",
    "population": 10095,
    "lat": 5.26598,
    "lon": -76.56487,
    "selectable": false
  },
  {
    "name": "Tabio",
    "country": "CO",
    "featureCode": "PPL",
    "adminCode": "33",
    "population": 4180,
    "lat": 4.91726,
    "lon": -74.09364,
    "selectable": false
  },
  {
    "name": "Sutatausa",
    "country": "CO",
    "featureCode": "PPL",
    "adminCode": "33",
    "population": 1332,
    "lat": 5.24779,
    "lon": -73.85238,
    "selectable": false
  },
  {
    "name": "Sutamarchán",
    "country": "CO",
    "featureCode": "PPL",
    "adminCode": "36",
    "population": 1432,
    "lat": 5.61538,
    "lon": -73.61701,
    "selectable": false
  },
  {
    "name": "Susacón",
    "country": "CO",
    "featureCode": "PPL",
    "adminCode": "36",
    "population": 1207,
    "lat": 6.22978,
    "lon": -72.6901,
    "selectable": false
  },
  {
    "name": "Susa",
    "country": "CO",
    "featureCode": "PPL",
    "adminCode": "33",
    "population": 1608,
    "lat": 5.4519,
    "lon": -73.81436,
    "selectable": false
  },
  {
    "name": "Supía",
    "country": "CO",
    "featureCode": "PPL",
    "adminCode": "37",
    "population": 12784,
    "lat": 5.45303,
    "lon": -75.65072,
    "selectable": false
  },
  {
    "name": "Supatá",
    "country": "CO",
    "featureCode": "PPL",
    "adminCode": "33",
    "population": 1907,
    "lat": 5.06097,
    "lon": -74.2372,
    "selectable": false
  },
  {
    "name": "Suesca",
    "country": "CO",
    "featureCode": "PPL",
    "adminCode": "33",
    "population": 4877,
    "lat": 5.10289,
    "lon": -73.79845,
    "selectable": false
  },
  {
    "name": "Sucre",
    "country": "CO",
    "featureCode": "PPL",
    "adminCode": "27",
    "population": 23210,
    "lat": 8.81136,
    "lon": -74.72084,
    "selectable": false
  },
  {
    "name": "Sucre",
    "country": "CO",
    "featureCode": "PPL",
    "adminCode": "26",
    "population": 1095,
    "lat": 5.91833,
    "lon": -73.79109,
    "selectable": false
  },
  {
    "name": "Sucre",
    "country": "CO",
    "featureCode": "PPL",
    "adminCode": "09",
    "population": 2552,
    "lat": 2.03805,
    "lon": -76.92446,
    "selectable": false
  },
  {
    "name": "Subachoque",
    "country": "CO",
    "featureCode": "PPL",
    "adminCode": "33",
    "population": 4088,
    "lat": 4.92614,
    "lon": -74.17299,
    "selectable": false
  },
  {
    "name": "Suaza",
    "country": "CO",
    "featureCode": "PPL",
    "adminCode": "16",
    "population": 2481,
    "lat": 1.97611,
    "lon": -75.79454,
    "selectable": false
  },
  {
    "name": "Suárez",
    "country": "CO",
    "featureCode": "PPL",
    "adminCode": "28",
    "population": 1243,
    "lat": 4.04906,
    "lon": -74.83198,
    "selectable": false
  },
  {
    "name": "Suárez",
    "country": "CO",
    "featureCode": "PPL",
    "adminCode": "09",
    "population": 9985,
    "lat": 2.95395,
    "lon": -76.69644,
    "selectable": false
  },
  {
    "name": "Suan",
    "country": "CO",
    "featureCode": "PPL",
    "adminCode": "04",
    "population": 10381,
    "lat": 10.33347,
    "lon": -74.88016,
    "selectable": false
  },
  {
    "name": "Suaita",
    "country": "CO",
    "featureCode": "PPL",
    "adminCode": "26",
    "population": 2691,
    "lat": 6.1014,
    "lon": -73.44041,
    "selectable": false
  },
  {
    "name": "Sotomayor",
    "country": "CO",
    "featureCode": "PPL",
    "adminCode": "20",
    "population": 4839,
    "lat": 1.51469,
    "lon": -77.50444,
    "selectable": false
  },
  {
    "name": "Sotaquirá",
    "country": "CO",
    "featureCode": "PPL",
    "adminCode": "36",
    "population": 1352,
    "lat": 5.76483,
    "lon": -73.24758,
    "selectable": false
  },
  {
    "name": "Sopó",
    "country": "CO",
    "featureCode": "PPL",
    "adminCode": "33",
    "population": 8396,
    "lat": 4.9075,
    "lon": -73.9384,
    "selectable": false
  },
  {
    "name": "Soplaviento",
    "country": "CO",
    "featureCode": "PPL",
    "adminCode": "35",
    "population": 8067,
    "lat": 10.39306,
    "lon": -75.14083,
    "selectable": false
  },
  {
    "name": "Sonsón",
    "country": "CO",
    "featureCode": "PPL",
    "adminCode": "02",
    "population": 17232,
    "lat": 5.71062,
    "lon": -75.31068,
    "selectable": false
  },
  {
    "name": "Somondoco",
    "country": "CO",
    "featureCode": "PPL",
    "adminCode": "36",
    "population": 1029,
    "lat": 4.98778,
    "lon": -73.43611,
    "selectable": false
  },
  {
    "name": "Soledad",
    "country": "CO",
    "featureCode": "PPL",
    "adminCode": "04",
    "population": 342556,
    "lat": 10.91843,
    "lon": -74.76459,
    "selectable": false
  },
  {
    "name": "Solano",
    "country": "CO",
    "featureCode": "PPL",
    "adminCode": "08",
    "population": 2973,
    "lat": 0.69937,
    "lon": -75.25353,
    "selectable": false
  },
  {
    "name": "Sogamoso",
    "country": "CO",
    "featureCode": "PPL",
    "adminCode": "36",
    "population": 126551,
    "lat": 5.71434,
    "lon": -72.93391,
    "selectable": false
  },
  {
    "name": "Socotá",
    "country": "CO",
    "featureCode": "PPL",
    "adminCode": "36",
    "population": 2193,
    "lat": 6.04028,
    "lon": -72.63509,
    "selectable": false
  },
  {
    "name": "Socorro",
    "country": "CO",
    "featureCode": "PPL",
    "adminCode": "26",
    "population": 17752,
    "lat": 6.46838,
    "lon": -73.26022,
    "selectable": false
  },
  {
    "name": "Socha Viejo",
    "country": "CO",
    "featureCode": "PPL",
    "adminCode": "36",
    "population": 3353,
    "lat": 5.9817,
    "lon": -72.71503,
    "selectable": false
  },
  {
    "name": "Soatá",
    "country": "CO",
    "featureCode": "PPL",
    "adminCode": "36",
    "population": 10945,
    "lat": 6.33369,
    "lon": -72.68283,
    "selectable": false
  },
  {
    "name": "Soacha",
    "country": "CO",
    "featureCode": "PPL",
    "adminCode": "33",
    "population": 313945,
    "lat": 4.57937,
    "lon": -74.21682,
    "selectable": false
  },
  {
    "name": "Sitionuevo",
    "country": "CO",
    "featureCode": "PPL",
    "adminCode": "04",
    "population": 11817,
    "lat": 10.77737,
    "lon": -74.72049,
    "selectable": false
  },
  {
    "name": "Sincelejo",
    "country": "CO",
    "featureCode": "PPLA",
    "adminCode": "27",
    "population": 261187,
    "lat": 9.30472,
    "lon": -75.39778,
    "selectable": false
  },
  {
    "name": "Sincé",
    "country": "CO",
    "featureCode": "PPL",
    "adminCode": "27",
    "population": 30768,
    "lat": 9.24391,
    "lon": -75.14675,
    "selectable": false
  },
  {
    "name": "Simití",
    "country": "CO",
    "featureCode": "PPL",
    "adminCode": "35",
    "population": 6670,
    "lat": 7.9579,
    "lon": -73.9436,
    "selectable": false
  },
  {
    "name": "Simijaca",
    "country": "CO",
    "featureCode": "PPL",
    "adminCode": "33",
    "population": 4767,
    "lat": 5.50291,
    "lon": -73.85227,
    "selectable": false
  },
  {
    "name": "Simacota",
    "country": "CO",
    "featureCode": "PPL",
    "adminCode": "26",
    "population": 2156,
    "lat": 6.4429,
    "lon": -73.33688,
    "selectable": false
  },
  {
    "name": "Silvia",
    "country": "CO",
    "featureCode": "PPL",
    "adminCode": "09",
    "population": 7474,
    "lat": 2.6098,
    "lon": -76.38185,
    "selectable": false
  },
  {
    "name": "Silvania",
    "country": "CO",
    "featureCode": "PPL",
    "adminCode": "33",
    "population": 8237,
    "lat": 4.40367,
    "lon": -74.3867,
    "selectable": false
  },
  {
    "name": "Silos",
    "country": "CO",
    "featureCode": "PPL",
    "adminCode": "21",
    "population": 1300,
    "lat": 7.20524,
    "lon": -72.75639,
    "selectable": false
  },
  {
    "name": "Sibundoy",
    "country": "CO",
    "featureCode": "PPL",
    "adminCode": "22",
    "population": 9458,
    "lat": 1.20478,
    "lon": -76.92366,
    "selectable": false
  },
  {
    "name": "Sibaté",
    "country": "CO",
    "featureCode": "PPL",
    "adminCode": "33",
    "population": 23208,
    "lat": 4.48425,
    "lon": -74.24499,
    "selectable": false
  },
  {
    "name": "Siachoque",
    "country": "CO",
    "featureCode": "PPL",
    "adminCode": "36",
    "population": 1375,
    "lat": 5.51238,
    "lon": -73.24436,
    "selectable": false
  },
  {
    "name": "Sevilla",
    "country": "CO",
    "featureCode": "PPL",
    "adminCode": "29",
    "population": 41612,
    "lat": 4.26425,
    "lon": -75.93085,
    "selectable": false
  },
  {
    "name": "Sesquilé",
    "country": "CO",
    "featureCode": "PPL",
    "adminCode": "33",
    "population": 1876,
    "lat": 5.04463,
    "lon": -73.79724,
    "selectable": false
  },
  {
    "name": "Segovia",
    "country": "CO",
    "featureCode": "PPL",
    "adminCode": "02",
    "population": 39938,
    "lat": 7.07993,
    "lon": -74.6989,
    "selectable": false
  },
  {
    "name": "Sasaima",
    "country": "CO",
    "featureCode": "PPL",
    "adminCode": "33",
    "population": 2948,
    "lat": 4.96611,
    "lon": -74.43512,
    "selectable": false
  },
  {
    "name": "Sardinata",
    "country": "CO",
    "featureCode": "PPL",
    "adminCode": "21",
    "population": 7872,
    "lat": 8.08289,
    "lon": -72.80071,
    "selectable": false
  },
  {
    "name": "Sapuyes",
    "country": "CO",
    "featureCode": "PPL",
    "adminCode": "20",
    "population": 2628,
    "lat": 1.03728,
    "lon": -77.62094,
    "selectable": false
  },
  {
    "name": "San Zenón",
    "country": "CO",
    "featureCode": "PPL",
    "adminCode": "35",
    "population": 6520,
    "lat": 9.24217,
    "lon": -74.50037,
    "selectable": false
  },
  {
    "name": "San Vicente de Chucurí",
    "country": "CO",
    "featureCode": "PPL",
    "adminCode": "26",
    "population": 11265,
    "lat": 6.881,
    "lon": -73.40977,
    "selectable": false
  },
  {
    "name": "San Vicente",
    "country": "CO",
    "featureCode": "PPL",
    "adminCode": "02",
    "population": 5020,
    "lat": 6.23278,
    "lon": -75.33611,
    "selectable": false
  },
  {
    "name": "Santuario",
    "country": "CO",
    "featureCode": "PPL",
    "adminCode": "02",
    "population": 17722,
    "lat": 6.13833,
    "lon": -75.26417,
    "selectable": false
  },
  {
    "name": "Santuario",
    "country": "CO",
    "featureCode": "PPL",
    "adminCode": "24",
    "population": 6815,
    "lat": 5.07237,
    "lon": -75.96341,
    "selectable": false
  },
  {
    "name": "Santo Tomás",
    "country": "CO",
    "featureCode": "PPL",
    "adminCode": "04",
    "population": 25847,
    "lat": 10.75773,
    "lon": -74.75451,
    "selectable": false
  },
  {
    "name": "Santo Domingo",
    "country": "CO",
    "featureCode": "PPL",
    "adminCode": "02",
    "population": 2873,
    "lat": 6.47222,
    "lon": -75.16472,
    "selectable": false
  },
  {
    "name": "Santiago",
    "country": "CO",
    "featureCode": "PPL",
    "adminCode": "21",
    "population": 1032,
    "lat": 7.86432,
    "lon": -72.7162,
    "selectable": false
  },
  {
    "name": "Santiago",
    "country": "CO",
    "featureCode": "PPL",
    "adminCode": "22",
    "population": 2715,
    "lat": 1.14844,
    "lon": -77.0045,
    "selectable": false
  },
  {
    "name": "Santa Sofía",
    "country": "CO",
    "featureCode": "PPL",
    "adminCode": "36",
    "population": 1058,
    "lat": 5.70908,
    "lon": -73.60404,
    "selectable": false
  },
  {
    "name": "Santa Rosa de Viterbo",
    "country": "CO",
    "featureCode": "PPL",
    "adminCode": "36",
    "population": 6923,
    "lat": 5.87401,
    "lon": -72.98217,
    "selectable": false
  },
  {
    "name": "Santa Rosa de Osos",
    "country": "CO",
    "featureCode": "PPL",
    "adminCode": "02",
    "population": 10191,
    "lat": 6.64738,
    "lon": -75.4603,
    "selectable": false
  },
  {
    "name": "Santa Rosa de Cabal",
    "country": "CO",
    "featureCode": "PPL",
    "adminCode": "24",
    "population": 57928,
    "lat": 4.86806,
    "lon": -75.62139,
    "selectable": false
  },
  {
    "name": "Santa Rosa",
    "country": "CO",
    "featureCode": "PPL",
    "adminCode": "35",
    "population": 10604,
    "lat": 10.44472,
    "lon": -75.36972,
    "selectable": false
  },
  {
    "name": "Santander de Quilichao",
    "country": "CO",
    "featureCode": "PPL",
    "adminCode": "09",
    "population": 40798,
    "lat": 3.00945,
    "lon": -76.48494,
    "selectable": false
  },
  {
    "name": "Santana",
    "country": "CO",
    "featureCode": "PPL",
    "adminCode": "36",
    "population": 2091,
    "lat": 6.0575,
    "lon": -73.48112,
    "selectable": false
  },
  {
    "name": "Santa Marta",
    "country": "CO",
    "featureCode": "PPLA",
    "adminCode": "38",
    "population": 431781,
    "lat": 11.24079,
    "lon": -74.19904,
    "selectable": false
  },
  {
    "name": "Santa María",
    "country": "CO",
    "featureCode": "PPL",
    "adminCode": "36",
    "population": 2238,
    "lat": 4.86048,
    "lon": -73.26234,
    "selectable": false
  },
  {
    "name": "Santa María",
    "country": "CO",
    "featureCode": "PPL",
    "adminCode": "16",
    "population": 2761,
    "lat": 2.95,
    "lon": -75.65,
    "selectable": false
  },
  {
    "name": "Santa Lucía",
    "country": "CO",
    "featureCode": "PPL",
    "adminCode": "04",
    "population": 15760,
    "lat": 10.3242,
    "lon": -74.96017,
    "selectable": false
  },
  {
    "name": "Santa Catalina",
    "country": "CO",
    "featureCode": "PPL",
    "adminCode": "35",
    "population": 6084,
    "lat": 10.60361,
    "lon": -75.28824,
    "selectable": false
  },
  {
    "name": "Santa Bárbara",
    "country": "CO",
    "featureCode": "PPL",
    "adminCode": "02",
    "population": 12743,
    "lat": 5.87458,
    "lon": -75.56706,
    "selectable": false
  },
  {
    "name": "Santa Ana",
    "country": "CO",
    "featureCode": "PPL",
    "adminCode": "38",
    "population": 13950,
    "lat": 9.32125,
    "lon": -74.56848,
    "selectable": false
  },
  {
    "name": "San Roque",
    "country": "CO",
    "featureCode": "PPL",
    "adminCode": "02",
    "population": 5576,
    "lat": 6.48511,
    "lon": -75.0196,
    "selectable": false
  },
  {
    "name": "San Rafael",
    "country": "CO",
    "featureCode": "PPL",
    "adminCode": "02",
    "population": 7245,
    "lat": 6.29436,
    "lon": -75.02589,
    "selectable": false
  },
  {
    "name": "San Pelayo",
    "country": "CO",
    "featureCode": "PPL",
    "adminCode": "12",
    "population": 5637,
    "lat": 8.95833,
    "lon": -75.83627,
    "selectable": false
  },
  {
    "name": "San Pedro de Urabá",
    "country": "CO",
    "featureCode": "PPL",
    "adminCode": "02",
    "population": 11095,
    "lat": 8.27515,
    "lon": -76.37641,
    "selectable": false
  },
  {
    "name": "San Pedro",
    "country": "CO",
    "featureCode": "PPL",
    "adminCode": "27",
    "population": 11489,
    "lat": 9.3956,
    "lon": -75.06476,
    "selectable": false
  },
  {
    "name": "San Pedro",
    "country": "CO",
    "featureCode": "PPL",
    "adminCode": "02",
    "population": 8801,
    "lat": 6.46451,
    "lon": -75.56002,
    "selectable": false
  },
  {
    "name": "San Pedro",
    "country": "CO",
    "featureCode": "PPL",
    "adminCode": "29",
    "population": 5473,
    "lat": 3.99456,
    "lon": -76.2278,
    "selectable": false
  },
  {
    "name": "San Pablo de Borbur",
    "country": "CO",
    "featureCode": "PPL",
    "adminCode": "36",
    "population": 1519,
    "lat": 5.66034,
    "lon": -74.06212,
    "selectable": false
  },
  {
    "name": "San Pablo",
    "country": "CO",
    "featureCode": "PPL",
    "adminCode": "35",
    "population": 13983,
    "lat": 10.05154,
    "lon": -75.26775,
    "selectable": false
  },
  {
    "name": "San Pablo",
    "country": "CO",
    "featureCode": "PPL",
    "adminCode": "20",
    "population": 6522,
    "lat": 1.6725,
    "lon": -77.01389,
    "selectable": false
  },
  {
    "name": "San Onofre",
    "country": "CO",
    "featureCode": "PPL",
    "adminCode": "27",
    "population": 32957,
    "lat": 9.73586,
    "lon": -75.52626,
    "selectable": false
  },
  {
    "name": "San Miguel",
    "country": "CO",
    "featureCode": "PPL",
    "adminCode": "22",
    "population": 7185,
    "lat": 0.34314,
    "lon": -76.91124,
    "selectable": false
  },
  {
    "name": "San Mateo",
    "country": "CO",
    "featureCode": "PPL",
    "adminCode": "36",
    "population": 1634,
    "lat": 6.40111,
    "lon": -72.55563,
    "selectable": false
  },
  {
    "name": "San Martín",
    "country": "CO",
    "featureCode": "PPL",
    "adminCode": "19",
    "population": 16273,
    "lat": 3.69637,
    "lon": -73.69958,
    "selectable": false
  },
  {
    "name": "San Marcos",
    "country": "CO",
    "featureCode": "PPL",
    "adminCode": "27",
    "population": 36549,
    "lat": 8.65972,
    "lon": -75.12809,
    "selectable": false
  },
  {
    "name": "San Luis de Palenque",
    "country": "CO",
    "featureCode": "PPL",
    "adminCode": "32",
    "population": 2032,
    "lat": 5.42139,
    "lon": -71.73167,
    "selectable": false
  },
  {
    "name": "San Luis de Gaceno",
    "country": "CO",
    "featureCode": "PPL",
    "adminCode": "36",
    "population": 2579,
    "lat": 4.82052,
    "lon": -73.16851,
    "selectable": false
  },
  {
    "name": "San Luis de Cubarral",
    "country": "CO",
    "featureCode": "PPL",
    "adminCode": "19",
    "population": 2280,
    "lat": 3.79352,
    "lon": -73.84063,
    "selectable": false
  },
  {
    "name": "San Luis",
    "country": "CO",
    "featureCode": "PPL",
    "adminCode": "28",
    "population": 4184,
    "lat": 4.13258,
    "lon": -75.09499,
    "selectable": false
  },
  {
    "name": "San Lorenzo",
    "country": "CO",
    "featureCode": "PPL",
    "adminCode": "20",
    "population": 2394,
    "lat": 1.50628,
    "lon": -77.21898,
    "selectable": false
  },
  {
    "name": "San Juan Nepomuceno",
    "country": "CO",
    "featureCode": "PPL",
    "adminCode": "35",
    "population": 29619,
    "lat": 9.95156,
    "lon": -75.08198,
    "selectable": false
  },
  {
    "name": "San Juan de Urabá",
    "country": "CO",
    "featureCode": "PPL",
    "adminCode": "02",
    "population": 10825,
    "lat": 8.75924,
    "lon": -76.52969,
    "selectable": false
  },
  {
    "name": "San Juan del Cesar",
    "country": "CO",
    "featureCode": "PPL",
    "adminCode": "17",
    "population": 26848,
    "lat": 10.77108,
    "lon": -73.00314,
    "selectable": false
  },
  {
    "name": "San Juan de Betulia",
    "country": "CO",
    "featureCode": "PPL",
    "adminCode": "27",
    "population": 9092,
    "lat": 9.27345,
    "lon": -75.24103,
    "selectable": false
  },
  {
    "name": "San Juan de Arama",
    "country": "CO",
    "featureCode": "PPL",
    "adminCode": "19",
    "population": 2636,
    "lat": 3.36985,
    "lon": -73.87267,
    "selectable": false
  },
  {
    "name": "San José de Miranda",
    "country": "CO",
    "featureCode": "PPL",
    "adminCode": "26",
    "population": 1096,
    "lat": 6.6587,
    "lon": -72.73344,
    "selectable": false
  },
  {
    "name": "San José del Palmar",
    "country": "CO",
    "featureCode": "PPL",
    "adminCode": "11",
    "population": 2392,
    "lat": 4.97417,
    "lon": -76.22833,
    "selectable": false
  },
  {
    "name": "San José de La Montaña",
    "country": "CO",
    "featureCode": "PPL",
    "adminCode": "02",
    "population": 2819,
    "lat": 6.85028,
    "lon": -75.68333,
    "selectable": false
  },
  {
    "name": "San José",
    "country": "CO",
    "featureCode": "PPL",
    "adminCode": "37",
    "population": 1724,
    "lat": 5.08583,
    "lon": -75.78833,
    "selectable": false
  },
  {
    "name": "San José",
    "country": "CO",
    "featureCode": "PPL",
    "adminCode": "20",
    "population": 1772,
    "lat": 1.69659,
    "lon": -78.24482,
    "selectable": false
  },
  {
    "name": "San Jerónimo",
    "country": "CO",
    "featureCode": "PPL",
    "adminCode": "02",
    "population": 3356,
    "lat": 6.44344,
    "lon": -75.72815,
    "selectable": false
  },
  {
    "name": "San Jacinto",
    "country": "CO",
    "featureCode": "PPL",
    "adminCode": "35",
    "population": 20265,
    "lat": 9.82767,
    "lon": -75.1217,
    "selectable": false
  },
  {
    "name": "San Gil",
    "country": "CO",
    "featureCode": "PPL",
    "adminCode": "26",
    "population": 33592,
    "lat": 6.55573,
    "lon": -73.13309,
    "selectable": false
  },
  {
    "name": "San Francisco",
    "country": "CO",
    "featureCode": "PPL",
    "adminCode": "02",
    "population": 2779,
    "lat": 6.11667,
    "lon": -75.98333,
    "selectable": false
  },
  {
    "name": "San Francisco",
    "country": "CO",
    "featureCode": "PPL",
    "adminCode": "33",
    "population": 2785,
    "lat": 4.97372,
    "lon": -74.29006,
    "selectable": false
  },
  {
    "name": "San Francisco",
    "country": "CO",
    "featureCode": "PPL",
    "adminCode": "22",
    "population": 4350,
    "lat": 1.17867,
    "lon": -76.8785,
    "selectable": false
  },
  {
    "name": "San Fernando",
    "country": "CO",
    "featureCode": "PPL",
    "adminCode": "35",
    "population": 1615,
    "lat": 9.27972,
    "lon": -74.53389,
    "selectable": false
  },
  {
    "name": "San Estanislao",
    "country": "CO",
    "featureCode": "PPL",
    "adminCode": "35",
    "population": 12596,
    "lat": 10.39833,
    "lon": -75.15111,
    "selectable": false
  },
  {
    "name": "Sandoná",
    "country": "CO",
    "featureCode": "PPL",
    "adminCode": "20",
    "population": 10401,
    "lat": 1.28626,
    "lon": -77.46921,
    "selectable": false
  },
  {
    "name": "San Diego",
    "country": "CO",
    "featureCode": "PPL",
    "adminCode": "10",
    "population": 8014,
    "lat": 10.33622,
    "lon": -73.18203,
    "selectable": false
  },
  {
    "name": "San Cristóbal",
    "country": "CO",
    "featureCode": "PPL",
    "adminCode": "35",
    "population": 4737,
    "lat": 9.87809,
    "lon": -75.25248,
    "selectable": false
  },
  {
    "name": "San Cayetano",
    "country": "CO",
    "featureCode": "PPL",
    "adminCode": "21",
    "population": 1430,
    "lat": 7.87707,
    "lon": -72.6243,
    "selectable": false
  },
  {
    "name": "San Carlos de Guaroa",
    "country": "CO",
    "featureCode": "PPL",
    "adminCode": "19",
    "population": 1604,
    "lat": 3.71161,
    "lon": -73.24344,
    "selectable": false
  },
  {
    "name": "San Carlos",
    "country": "CO",
    "featureCode": "PPL",
    "adminCode": "12",
    "population": 24615,
    "lat": 8.79577,
    "lon": -75.69947,
    "selectable": false
  },
  {
    "name": "San Carlos",
    "country": "CO",
    "featureCode": "PPL",
    "adminCode": "02",
    "population": 22678,
    "lat": 7.79177,
    "lon": -74.77316,
    "selectable": false
  },
  {
    "name": "San Carlos",
    "country": "CO",
    "featureCode": "PPL",
    "adminCode": "02",
    "population": 7742,
    "lat": 6.18789,
    "lon": -74.99315,
    "selectable": false
  },
  {
    "name": "San Calixto",
    "country": "CO",
    "featureCode": "PPL",
    "adminCode": "21",
    "population": 2080,
    "lat": 8.4021,
    "lon": -73.20737,
    "selectable": false
  },
  {
    "name": "San Bernardo del Viento",
    "country": "CO",
    "featureCode": "PPL",
    "adminCode": "12",
    "population": 8967,
    "lat": 9.3533,
    "lon": -75.95244,
    "selectable": false
  },
  {
    "name": "San Bernardo",
    "country": "CO",
    "featureCode": "PPL",
    "adminCode": "09",
    "population": 2988,
    "lat": 1.52119,
    "lon": -77.03091,
    "selectable": false
  },
  {
    "name": "San Benito Abad",
    "country": "CO",
    "featureCode": "PPL",
    "adminCode": "27",
    "population": 18181,
    "lat": 8.92901,
    "lon": -75.02709,
    "selectable": false
  },
  {
    "name": "San Antonio",
    "country": "CO",
    "featureCode": "PPL",
    "adminCode": "38",
    "population": 8476,
    "lat": 9.93303,
    "lon": -74.69346,
    "selectable": false
  },
  {
    "name": "San Antonio",
    "country": "CO",
    "featureCode": "PPL",
    "adminCode": "28",
    "population": 5185,
    "lat": 3.91423,
    "lon": -75.48008,
    "selectable": false
  },
  {
    "name": "San Antero",
    "country": "CO",
    "featureCode": "PPL",
    "adminCode": "12",
    "population": 11610,
    "lat": 9.3741,
    "lon": -75.75891,
    "selectable": false
  },
  {
    "name": "San Andrés",
    "country": "CO",
    "featureCode": "PPLA",
    "adminCode": "25",
    "population": 58257,
    "lat": 12.58472,
    "lon": -81.70056,
    "selectable": false
  },
  {
    "name": "San Andrés",
    "country": "CO",
    "featureCode": "PPL",
    "adminCode": "26",
    "population": 3032,
    "lat": 6.81148,
    "lon": -72.84929,
    "selectable": false
  },
  {
    "name": "San Alberto",
    "country": "CO",
    "featureCode": "PPL",
    "adminCode": "10",
    "population": 10627,
    "lat": 7.76107,
    "lon": -73.3922,
    "selectable": false
  },
  {
    "name": "San Agustín",
    "country": "CO",
    "featureCode": "PPL",
    "adminCode": "16",
    "population": 9481,
    "lat": 1.87863,
    "lon": -76.27557,
    "selectable": false
  },
  {
    "name": "Sampués",
    "country": "CO",
    "featureCode": "PPL",
    "adminCode": "27",
    "population": 21204,
    "lat": 9.18361,
    "lon": -75.38167,
    "selectable": false
  },
  {
    "name": "Samaniego",
    "country": "CO",
    "featureCode": "PPL",
    "adminCode": "20",
    "population": 13515,
    "lat": 1.3385,
    "lon": -77.5957,
    "selectable": false
  },
  {
    "name": "Samacá",
    "country": "CO",
    "featureCode": "PPL",
    "adminCode": "36",
    "population": 3689,
    "lat": 5.49274,
    "lon": -73.48537,
    "selectable": false
  },
  {
    "name": "Salgar",
    "country": "CO",
    "featureCode": "PPL",
    "adminCode": "02",
    "population": 6428,
    "lat": 5.96502,
    "lon": -75.96541,
    "selectable": false
  },
  {
    "name": "Salento",
    "country": "CO",
    "featureCode": "PPL",
    "adminCode": "23",
    "population": 4135,
    "lat": 4.6375,
    "lon": -75.57028,
    "selectable": false
  },
  {
    "name": "Saldaña",
    "country": "CO",
    "featureCode": "PPL",
    "adminCode": "28",
    "population": 9237,
    "lat": 3.92922,
    "lon": -75.01517,
    "selectable": false
  },
  {
    "name": "Salamina",
    "country": "CO",
    "featureCode": "PPL",
    "adminCode": "38",
    "population": 6166,
    "lat": 10.49027,
    "lon": -74.79463,
    "selectable": false
  },
  {
    "name": "Salamina",
    "country": "CO",
    "featureCode": "PPL",
    "adminCode": "37",
    "population": 18076,
    "lat": 5.40733,
    "lon": -75.48749,
    "selectable": false
  },
  {
    "name": "Saladoblanco",
    "country": "CO",
    "featureCode": "PPL",
    "adminCode": "16",
    "population": 1662,
    "lat": 1.99244,
    "lon": -76.04335,
    "selectable": false
  },
  {
    "name": "Sahagún",
    "country": "CO",
    "featureCode": "PPL",
    "adminCode": "12",
    "population": 59188,
    "lat": 8.94616,
    "lon": -75.44275,
    "selectable": false
  },
  {
    "name": "Sáchica",
    "country": "CO",
    "featureCode": "PPL",
    "adminCode": "36",
    "population": 1774,
    "lat": 5.58453,
    "lon": -73.54184,
    "selectable": false
  },
  {
    "name": "Saboyá",
    "country": "CO",
    "featureCode": "PPL",
    "adminCode": "36",
    "population": 1375,
    "lat": 5.69636,
    "lon": -73.76932,
    "selectable": false
  },
  {
    "name": "Sabaneta",
    "country": "CO",
    "featureCode": "PPLX",
    "adminCode": "02",
    "population": 34172,
    "lat": 6.15154,
    "lon": -75.61658,
    "selectable": false
  },
  {
    "name": "Sabanalarga",
    "country": "CO",
    "featureCode": "PPL",
    "adminCode": "04",
    "population": 68535,
    "lat": 10.62962,
    "lon": -74.92063,
    "selectable": false
  },
  {
    "name": "Sabanalarga",
    "country": "CO",
    "featureCode": "PPL",
    "adminCode": "02",
    "population": 2517,
    "lat": 6.84893,
    "lon": -75.81711,
    "selectable": false
  },
  {
    "name": "Sabanagrande",
    "country": "CO",
    "featureCode": "PPL",
    "adminCode": "04",
    "population": 24880,
    "lat": 10.79115,
    "lon": -74.76059,
    "selectable": false
  },
  {
    "name": "Sabana de Torres",
    "country": "CO",
    "featureCode": "PPL",
    "adminCode": "26",
    "population": 11291,
    "lat": 7.3915,
    "lon": -73.49574,
    "selectable": false
  },
  {
    "name": "Rovira",
    "country": "CO",
    "featureCode": "PPL",
    "adminCode": "28",
    "population": 6949,
    "lat": 4.23922,
    "lon": -75.23996,
    "selectable": false
  },
  {
    "name": "Rosas",
    "country": "CO",
    "featureCode": "PPL",
    "adminCode": "09",
    "population": 1830,
    "lat": 2.26093,
    "lon": -76.73986,
    "selectable": false
  },
  {
    "name": "Roncesvalles",
    "country": "CO",
    "featureCode": "PPL",
    "adminCode": "28",
    "population": 3918,
    "lat": 4.0108,
    "lon": -75.60493,
    "selectable": false
  },
  {
    "name": "Roldanillo",
    "country": "CO",
    "featureCode": "PPL",
    "adminCode": "29",
    "population": 27561,
    "lat": 4.41256,
    "lon": -76.15457,
    "selectable": false
  },
  {
    "name": "Rivera",
    "country": "CO",
    "featureCode": "PPL",
    "adminCode": "16",
    "population": 8044,
    "lat": 2.77717,
    "lon": -75.25642,
    "selectable": false
  },
  {
    "name": "Risaralda",
    "country": "CO",
    "featureCode": "PPL",
    "adminCode": "37",
    "population": 5421,
    "lat": 5.16647,
    "lon": -75.76595,
    "selectable": false
  },
  {
    "name": "Río Viejo",
    "country": "CO",
    "featureCode": "PPL",
    "adminCode": "35",
    "population": 6963,
    "lat": 8.5874,
    "lon": -73.83901,
    "selectable": false
  },
  {
    "name": "Riosucio",
    "country": "CO",
    "featureCode": "PPL",
    "adminCode": "11",
    "population": 7163,
    "lat": 7.44027,
    "lon": -77.1167,
    "selectable": false
  },
  {
    "name": "Riosucio",
    "country": "CO",
    "featureCode": "PPL",
    "adminCode": "37",
    "population": 18950,
    "lat": 5.42164,
    "lon": -75.70318,
    "selectable": false
  },
  {
    "name": "Rionegro",
    "country": "CO",
    "featureCode": "PPL",
    "adminCode": "02",
    "population": 62291,
    "lat": 6.15515,
    "lon": -75.37371,
    "selectable": false
  },
  {
    "name": "Ríohacha",
    "country": "CO",
    "featureCode": "PPLA",
    "adminCode": "17",
    "population": 92431,
    "lat": 11.54444,
    "lon": -72.90722,
    "selectable": false
  },
  {
    "name": "Riofrío",
    "country": "CO",
    "featureCode": "PPL",
    "adminCode": "29",
    "population": 9236,
    "lat": 4.1571,
    "lon": -76.28852,
    "selectable": false
  },
  {
    "name": "Río de Oro",
    "country": "CO",
    "featureCode": "PPL",
    "adminCode": "10",
    "population": 6122,
    "lat": 8.2919,
    "lon": -73.38485,
    "selectable": false
  },
  {
    "name": "Rioblanco",
    "country": "CO",
    "featureCode": "PPL",
    "adminCode": "28",
    "population": 6210,
    "lat": 3.53083,
    "lon": -75.68056,
    "selectable": false
  },
  {
    "name": "Ricaurte",
    "country": "CO",
    "featureCode": "PPL",
    "adminCode": "33",
    "population": 2682,
    "lat": 4.28075,
    "lon": -74.76469,
    "selectable": false
  },
  {
    "name": "Ricaurte",
    "country": "CO",
    "featureCode": "PPL",
    "adminCode": "20",
    "population": 2617,
    "lat": 1.18112,
    "lon": -77.96124,
    "selectable": false
  },
  {
    "name": "El Retiro",
    "country": "CO",
    "featureCode": "PPL",
    "adminCode": "02",
    "population": 7941,
    "lat": 6.05861,
    "lon": -75.50306,
    "selectable": false
  },
  {
    "name": "Restrepo",
    "country": "CO",
    "featureCode": "PPL",
    "adminCode": "19",
    "population": 7511,
    "lat": 4.25833,
    "lon": -73.56142,
    "selectable": false
  },
  {
    "name": "Restrepo",
    "country": "CO",
    "featureCode": "PPL",
    "adminCode": "29",
    "population": 9545,
    "lat": 3.82203,
    "lon": -76.52242,
    "selectable": false
  },
  {
    "name": "Repelón",
    "country": "CO",
    "featureCode": "PPL",
    "adminCode": "04",
    "population": 18685,
    "lat": 10.49194,
    "lon": -75.12917,
    "selectable": false
  },
  {
    "name": "Remolino",
    "country": "CO",
    "featureCode": "PPL",
    "adminCode": "38",
    "population": 8308,
    "lat": 10.70198,
    "lon": -74.71602,
    "selectable": false
  },
  {
    "name": "Remedios",
    "country": "CO",
    "featureCode": "PPL",
    "adminCode": "02",
    "population": 6415,
    "lat": 7.03083,
    "lon": -74.53333,
    "selectable": false
  },
  {
    "name": "Regidor",
    "country": "CO",
    "featureCode": "PPL",
    "adminCode": "35",
    "population": 3386,
    "lat": 8.66565,
    "lon": -73.82151,
    "selectable": false
  },
  {
    "name": "Ráquira",
    "country": "CO",
    "featureCode": "PPL",
    "adminCode": "36",
    "population": 2120,
    "lat": 5.53793,
    "lon": -73.63201,
    "selectable": false
  },
  {
    "name": "Ramiriquí",
    "country": "CO",
    "featureCode": "PPL",
    "adminCode": "36",
    "population": 5039,
    "lat": 5.4002,
    "lon": -73.33544,
    "selectable": false
  },
  {
    "name": "Ragonvalia",
    "country": "CO",
    "featureCode": "PPL",
    "adminCode": "21",
    "population": 3543,
    "lat": 7.57749,
    "lon": -72.47574,
    "selectable": false
  },
  {
    "name": "Apulo",
    "country": "CO",
    "featureCode": "PPL",
    "adminCode": "33",
    "population": 4084,
    "lat": 4.51952,
    "lon": -74.59293,
    "selectable": false
  },
  {
    "name": "Quipile",
    "country": "CO",
    "featureCode": "PPL",
    "adminCode": "33",
    "population": 1896,
    "lat": 4.74806,
    "lon": -74.56306,
    "selectable": false
  },
  {
    "name": "Quinchía",
    "country": "CO",
    "featureCode": "PPL",
    "adminCode": "24",
    "population": 10895,
    "lat": 5.33957,
    "lon": -75.73018,
    "selectable": false
  },
  {
    "name": "Quimbaya",
    "country": "CO",
    "featureCode": "PPL",
    "adminCode": "23",
    "population": 31391,
    "lat": 4.62306,
    "lon": -75.76278,
    "selectable": false
  },
  {
    "name": "Quibdó",
    "country": "CO",
    "featureCode": "PPLA",
    "adminCode": "11",
    "population": 75104,
    "lat": 5.69472,
    "lon": -76.66111,
    "selectable": false
  },
  {
    "name": "Quetame",
    "country": "CO",
    "featureCode": "PPL",
    "adminCode": "33",
    "population": 1374,
    "lat": 4.33234,
    "lon": -73.86142,
    "selectable": false
  },
  {
    "name": "Purísima",
    "country": "CO",
    "featureCode": "PPL",
    "adminCode": "12",
    "population": 7043,
    "lat": 9.23657,
    "lon": -75.7219,
    "selectable": false
  },
  {
    "name": "Purificación",
    "country": "CO",
    "featureCode": "PPL",
    "adminCode": "28",
    "population": 10846,
    "lat": 3.8587,
    "lon": -74.93129,
    "selectable": false
  },
  {
    "name": "Pupiales",
    "country": "CO",
    "featureCode": "PPL",
    "adminCode": "20",
    "population": 6760,
    "lat": 0.87136,
    "lon": -77.64027,
    "selectable": false
  },
  {
    "name": "Puerto Wilches",
    "country": "CO",
    "featureCode": "PPL",
    "adminCode": "26",
    "population": 13705,
    "lat": 7.34828,
    "lon": -73.89601,
    "selectable": false
  },
  {
    "name": "Puerto Triunfo",
    "country": "CO",
    "featureCode": "PPL",
    "adminCode": "02",
    "population": 4055,
    "lat": 5.87262,
    "lon": -74.64029,
    "selectable": false
  },
  {
    "name": "Puerto Tejada",
    "country": "CO",
    "featureCode": "PPLA2",
    "adminCode": "09",
    "population": 53674,
    "lat": 3.23114,
    "lon": -76.41668,
    "selectable": false
  },
  {
    "name": "Puerto Santander",
    "country": "CO",
    "featureCode": "PPL",
    "adminCode": "21",
    "population": 16275,
    "lat": 8.36361,
    "lon": -72.4063,
    "selectable": false
  },
  {
    "name": "Puerto Salgar",
    "country": "CO",
    "featureCode": "PPL",
    "adminCode": "33",
    "population": 9863,
    "lat": 5.46304,
    "lon": -74.65436,
    "selectable": false
  },
  {
    "name": "Puerto Rondón",
    "country": "CO",
    "featureCode": "PPL",
    "adminCode": "03",
    "population": 3724,
    "lat": 6.28048,
    "lon": -71.1,
    "selectable": false
  },
  {
    "name": "Puerto Yuca",
    "country": "CO",
    "featureCode": "PPL",
    "adminCode": "19",
    "population": 5029,
    "lat": 2.93833,
    "lon": -73.20833,
    "selectable": false
  },
  {
    "name": "Puerto Rico",
    "country": "CO",
    "featureCode": "PPLA2",
    "adminCode": "08",
    "population": 12306,
    "lat": 1.91417,
    "lon": -75.145,
    "selectable": false
  },
  {
    "name": "Puerto Parra",
    "country": "CO",
    "featureCode": "PPL",
    "adminCode": "26",
    "population": 1448,
    "lat": 6.65149,
    "lon": -74.05734,
    "selectable": false
  },
  {
    "name": "Puerto Nariño",
    "country": "CO",
    "featureCode": "PPL",
    "adminCode": "01",
    "population": 2113,
    "lat": -3.77028,
    "lon": -70.38306,
    "selectable": false
  },
  {
    "name": "Puerto López",
    "country": "CO",
    "featureCode": "PPL",
    "adminCode": "19",
    "population": 16678,
    "lat": 4.08451,
    "lon": -72.95597,
    "selectable": false
  },
  {
    "name": "Puerto Lleras",
    "country": "CO",
    "featureCode": "PPL",
    "adminCode": "19",
    "population": 5076,
    "lat": 3.02225,
    "lon": -73.4044,
    "selectable": false
  },
  {
    "name": "Puerto Leguízamo",
    "country": "CO",
    "featureCode": "PPL",
    "adminCode": "22",
    "population": 9098,
    "lat": -0.19337,
    "lon": -74.78189,
    "selectable": false
  },
  {
    "name": "Inírida",
    "country": "CO",
    "featureCode": "PPLA",
    "adminCode": "15",
    "population": 7298,
    "lat": 3.86528,
    "lon": -67.92389,
    "selectable": false
  },
  {
    "name": "Puerto Escondido",
    "country": "CO",
    "featureCode": "PPL",
    "adminCode": "12",
    "population": 3020,
    "lat": 9.0181,
    "lon": -76.26413,
    "selectable": false
  },
  {
    "name": "Puerto Colombia",
    "country": "CO",
    "featureCode": "PPL",
    "adminCode": "04",
    "population": 26227,
    "lat": 10.98778,
    "lon": -74.95472,
    "selectable": false
  },
  {
    "name": "Puerto Carreño",
    "country": "CO",
    "featureCode": "PPLA",
    "adminCode": "31",
    "population": 10216,
    "lat": 6.18903,
    "lon": -67.48588,
    "selectable": false
  },
  {
    "name": "Puerto Boyacá",
    "country": "CO",
    "featureCode": "PPL",
    "adminCode": "36",
    "population": 27310,
    "lat": 5.97584,
    "lon": -74.58846,
    "selectable": false
  },
  {
    "name": "Puerto Berrío",
    "country": "CO",
    "featureCode": "PPL",
    "adminCode": "02",
    "population": 33983,
    "lat": 6.49156,
    "lon": -74.40326,
    "selectable": false
  },
  {
    "name": "Puerto Asís",
    "country": "CO",
    "featureCode": "PPL",
    "adminCode": "22",
    "population": 29782,
    "lat": 0.51328,
    "lon": -76.50075,
    "selectable": false
  },
  {
    "name": "Puerres",
    "country": "CO",
    "featureCode": "PPL",
    "adminCode": "20",
    "population": 3812,
    "lat": 1.19374,
    "lon": -77.26661,
    "selectable": false
  },
  {
    "name": "Puente Nacional",
    "country": "CO",
    "featureCode": "PPL",
    "adminCode": "26",
    "population": 5774,
    "lat": 5.8774,
    "lon": -73.6781,
    "selectable": false
  },
  {
    "name": "Puebloviejo",
    "country": "CO",
    "featureCode": "PPL",
    "adminCode": "38",
    "population": 13523,
    "lat": 10.99376,
    "lon": -74.28438,
    "selectable": false
  },
  {
    "name": "Pueblorrico",
    "country": "CO",
    "featureCode": "PPL",
    "adminCode": "02",
    "population": 5327,
    "lat": 5.79176,
    "lon": -75.84101,
    "selectable": false
  },
  {
    "name": "Pueblo Rico",
    "country": "CO",
    "featureCode": "PPL",
    "adminCode": "24",
    "population": 4165,
    "lat": 5.23833,
    "lon": -76.03639,
    "selectable": false
  },
  {
    "name": "Pueblo Nuevo",
    "country": "CO",
    "featureCode": "PPL",
    "adminCode": "12",
    "population": 9075,
    "lat": 8.2411,
    "lon": -74.95815,
    "selectable": false
  },
  {
    "name": "Providencia",
    "country": "CO",
    "featureCode": "PPL",
    "adminCode": "20",
    "population": 3326,
    "lat": 1.56976,
    "lon": -77.464,
    "selectable": false
  },
  {
    "name": "Prado",
    "country": "CO",
    "featureCode": "PPL",
    "adminCode": "28",
    "population": 3556,
    "lat": 3.75024,
    "lon": -74.92932,
    "selectable": false
  },
  {
    "name": "Pradera",
    "country": "CO",
    "featureCode": "PPL",
    "adminCode": "29",
    "population": 44630,
    "lat": 3.42111,
    "lon": -76.24472,
    "selectable": false
  },
  {
    "name": "Potosí",
    "country": "CO",
    "featureCode": "PPL",
    "adminCode": "20",
    "population": 3979,
    "lat": 0.80739,
    "lon": -77.57216,
    "selectable": false
  },
  {
    "name": "Pore",
    "country": "CO",
    "featureCode": "PPL",
    "adminCode": "32",
    "population": 4133,
    "lat": 5.72722,
    "lon": -71.99472,
    "selectable": false
  },
  {
    "name": "Popayán",
    "country": "CO",
    "featureCode": "PPLA",
    "adminCode": "09",
    "population": 258653,
    "lat": 2.43823,
    "lon": -76.61316,
    "selectable": false
  },
  {
    "name": "Ponedera",
    "country": "CO",
    "featureCode": "PPL",
    "adminCode": "04",
    "population": 11221,
    "lat": 10.64104,
    "lon": -74.75026,
    "selectable": false
  },
  {
    "name": "Polonuevo",
    "country": "CO",
    "featureCode": "PPL",
    "adminCode": "04",
    "population": 11727,
    "lat": 10.77697,
    "lon": -74.85344,
    "selectable": false
  },
  {
    "name": "Policarpa",
    "country": "CO",
    "featureCode": "PPL",
    "adminCode": "20",
    "population": 2377,
    "lat": 1.63231,
    "lon": -77.46199,
    "selectable": false
  },
  {
    "name": "Planeta Rica",
    "country": "CO",
    "featureCode": "PPL",
    "adminCode": "12",
    "population": 37297,
    "lat": 8.41472,
    "lon": -75.58833,
    "selectable": false
  },
  {
    "name": "Planadas",
    "country": "CO",
    "featureCode": "PPL",
    "adminCode": "28",
    "population": 9709,
    "lat": 3.19698,
    "lon": -75.64506,
    "selectable": false
  },
  {
    "name": "Pizarro",
    "country": "CO",
    "featureCode": "PPL",
    "adminCode": "11",
    "population": 6168,
    "lat": 4.95334,
    "lon": -77.36598,
    "selectable": false
  },
  {
    "name": "Francisco Pizarro",
    "country": "CO",
    "featureCode": "PPL",
    "adminCode": "20",
    "population": 6105,
    "lat": 2.10194,
    "lon": -78.72167,
    "selectable": false
  },
  {
    "name": "Pivijay",
    "country": "CO",
    "featureCode": "PPL",
    "adminCode": "38",
    "population": 33492,
    "lat": 10.46168,
    "lon": -74.61621,
    "selectable": false
  },
  {
    "name": "Pitalito",
    "country": "CO",
    "featureCode": "PPL",
    "adminCode": "16",
    "population": 53685,
    "lat": 1.84966,
    "lon": -76.04785,
    "selectable": false
  },
  {
    "name": "Pital",
    "country": "CO",
    "featureCode": "PPL",
    "adminCode": "16",
    "population": 3957,
    "lat": 2.2665,
    "lon": -75.80442,
    "selectable": false
  },
  {
    "name": "Piojó",
    "country": "CO",
    "featureCode": "PPL",
    "adminCode": "04",
    "population": 3388,
    "lat": 10.74846,
    "lon": -75.10776,
    "selectable": false
  },
  {
    "name": "Pinillos",
    "country": "CO",
    "featureCode": "PPL",
    "adminCode": "35",
    "population": 6218,
    "lat": 8.91925,
    "lon": -74.46771,
    "selectable": false
  },
  {
    "name": "Pijiño",
    "country": "CO",
    "featureCode": "PPL",
    "adminCode": "38",
    "population": 5390,
    "lat": 9.32908,
    "lon": -74.45302,
    "selectable": false
  },
  {
    "name": "Pijao",
    "country": "CO",
    "featureCode": "PPL",
    "adminCode": "23",
    "population": 5668,
    "lat": 4.33419,
    "lon": -75.70348,
    "selectable": false
  },
  {
    "name": "Piedras",
    "country": "CO",
    "featureCode": "PPL",
    "adminCode": "28",
    "population": 1172,
    "lat": 4.53833,
    "lon": -74.88175,
    "selectable": false
  },
  {
    "name": "Piedrancha",
    "country": "CO",
    "featureCode": "PPL",
    "adminCode": "20",
    "population": 1788,
    "lat": 1.1374,
    "lon": -77.8489,
    "selectable": false
  },
  {
    "name": "Pié de Pató",
    "country": "CO",
    "featureCode": "PPL",
    "adminCode": "11",
    "population": 3242,
    "lat": 5.51604,
    "lon": -76.97449,
    "selectable": false
  },
  {
    "name": "Piedecuesta",
    "country": "CO",
    "featureCode": "PPL",
    "adminCode": "26",
    "population": 86387,
    "lat": 6.98789,
    "lon": -73.04953,
    "selectable": false
  },
  {
    "name": "Pesca",
    "country": "CO",
    "featureCode": "PPL",
    "adminCode": "36",
    "population": 5113,
    "lat": 5.55,
    "lon": -73.05,
    "selectable": false
  },
  {
    "name": "Pereira",
    "country": "CO",
    "featureCode": "PPLA",
    "adminCode": "24",
    "population": 440118,
    "lat": 4.81333,
    "lon": -75.69611,
    "selectable": false
  },
  {
    "name": "Peque",
    "country": "CO",
    "featureCode": "PPL",
    "adminCode": "02",
    "population": 1793,
    "lat": 7.02122,
    "lon": -75.90926,
    "selectable": false
  },
  {
    "name": "Pensilvania",
    "country": "CO",
    "featureCode": "PPL",
    "adminCode": "37",
    "population": 8173,
    "lat": 5.38346,
    "lon": -75.16122,
    "selectable": false
  },
  {
    "name": "Pelaya",
    "country": "CO",
    "featureCode": "PPL",
    "adminCode": "10",
    "population": 11306,
    "lat": 8.68819,
    "lon": -73.66452,
    "selectable": false
  },
  {
    "name": "Pedraza",
    "country": "CO",
    "featureCode": "PPL",
    "adminCode": "38",
    "population": 3677,
    "lat": 10.18739,
    "lon": -74.91504,
    "selectable": false
  },
  {
    "name": "Payán",
    "country": "CO",
    "featureCode": "PPL",
    "adminCode": "20",
    "population": 2892,
    "lat": 1.935,
    "lon": -78.205,
    "selectable": false
  },
  {
    "name": "Pauna",
    "country": "CO",
    "featureCode": "PPL",
    "adminCode": "36",
    "population": 2663,
    "lat": 5.65861,
    "lon": -73.9825,
    "selectable": false
  },
  {
    "name": "Patía",
    "country": "CO",
    "featureCode": "PPL",
    "adminCode": "09",
    "population": 20807,
    "lat": 2.06895,
    "lon": -77.05273,
    "selectable": false
  },
  {
    "name": "Pasto",
    "country": "CO",
    "featureCode": "PPLA",
    "adminCode": "20",
    "population": 382236,
    "lat": 1.21361,
    "lon": -77.28111,
    "selectable": false
  },
  {
    "name": "Pasca",
    "country": "CO",
    "featureCode": "PPL",
    "adminCode": "33",
    "population": 3169,
    "lat": 4.30722,
    "lon": -74.30056,
    "selectable": false
  },
  {
    "name": "Pandi",
    "country": "CO",
    "featureCode": "PPL",
    "adminCode": "33",
    "population": 1336,
    "lat": 4.19111,
    "lon": -74.4875,
    "selectable": false
  },
  {
    "name": "Pamplona",
    "country": "CO",
    "featureCode": "PPL",
    "adminCode": "21",
    "population": 53587,
    "lat": 7.37565,
    "lon": -72.64795,
    "selectable": false
  },
  {
    "name": "Palocabildo",
    "country": "CO",
    "featureCode": "PPL",
    "adminCode": "28",
    "population": 3534,
    "lat": 5.11705,
    "lon": -75.01732,
    "selectable": false
  },
  {
    "name": "Palmito",
    "country": "CO",
    "featureCode": "PPL",
    "adminCode": "27",
    "population": 3992,
    "lat": 9.33333,
    "lon": -75.55,
    "selectable": false
  },
  {
    "name": "Palmira",
    "country": "CO",
    "featureCode": "PPL",
    "adminCode": "29",
    "population": 247986,
    "lat": 3.53944,
    "lon": -76.30361,
    "selectable": false
  },
  {
    "name": "Palmar de Varela",
    "country": "CO",
    "featureCode": "PPL",
    "adminCode": "04",
    "population": 28084,
    "lat": 10.74055,
    "lon": -74.75443,
    "selectable": false
  },
  {
    "name": "Palestina",
    "country": "CO",
    "featureCode": "PPL",
    "adminCode": "37",
    "population": 7865,
    "lat": 5.0194,
    "lon": -75.62242,
    "selectable": false
  },
  {
    "name": "Palestina",
    "country": "CO",
    "featureCode": "PPL",
    "adminCode": "16",
    "population": 2027,
    "lat": 1.72362,
    "lon": -76.13403,
    "selectable": false
  },
  {
    "name": "Palermo",
    "country": "CO",
    "featureCode": "PPL",
    "adminCode": "16",
    "population": 9896,
    "lat": 2.89167,
    "lon": -75.4375,
    "selectable": false
  },
  {
    "name": "Pajarito",
    "country": "CO",
    "featureCode": "PPL",
    "adminCode": "32",
    "population": 1258,
    "lat": 5.2929,
    "lon": -72.70277,
    "selectable": false
  },
  {
    "name": "Paispamba",
    "country": "CO",
    "featureCode": "PPL",
    "adminCode": "09",
    "population": 1390,
    "lat": 2.25462,
    "lon": -76.61086,
    "selectable": false
  },
  {
    "name": "Paipa",
    "country": "CO",
    "featureCode": "PPL",
    "adminCode": "36",
    "population": 13554,
    "lat": 5.78013,
    "lon": -73.11708,
    "selectable": false
  },
  {
    "name": "Pailitas",
    "country": "CO",
    "featureCode": "PPL",
    "adminCode": "10",
    "population": 10480,
    "lat": 8.95652,
    "lon": -73.62548,
    "selectable": false
  },
  {
    "name": "Paicol",
    "country": "CO",
    "featureCode": "PPL",
    "adminCode": "16",
    "population": 1681,
    "lat": 2.44962,
    "lon": -75.775,
    "selectable": false
  },
  {
    "name": "Páez",
    "country": "CO",
    "featureCode": "PPL",
    "adminCode": "36",
    "population": 1220,
    "lat": 5.10112,
    "lon": -73.05122,
    "selectable": false
  },
  {
    "name": "Belalcazar",
    "country": "CO",
    "featureCode": "PPL",
    "adminCode": "09",
    "population": 31800,
    "lat": 2.65472,
    "lon": -75.99278,
    "selectable": false
  },
  {
    "name": "Padilla",
    "country": "CO",
    "featureCode": "PPL",
    "adminCode": "09",
    "population": 4472,
    "lat": 3.22038,
    "lon": -76.31385,
    "selectable": false
  },
  {
    "name": "Pácora",
    "country": "CO",
    "featureCode": "PPL",
    "adminCode": "37",
    "population": 8218,
    "lat": 5.52708,
    "lon": -75.4593,
    "selectable": false
  },
  {
    "name": "Pacho",
    "country": "CO",
    "featureCode": "PPL",
    "adminCode": "33",
    "population": 16698,
    "lat": 5.13278,
    "lon": -74.15977,
    "selectable": false
  },
  {
    "name": "Ovejas",
    "country": "CO",
    "featureCode": "PPL",
    "adminCode": "27",
    "population": 13284,
    "lat": 9.53248,
    "lon": -75.22382,
    "selectable": false
  },
  {
    "name": "Otanche",
    "country": "CO",
    "featureCode": "PPL",
    "adminCode": "36",
    "population": 3589,
    "lat": 5.65672,
    "lon": -74.18249,
    "selectable": false
  },
  {
    "name": "Ospina",
    "country": "CO",
    "featureCode": "PPL",
    "adminCode": "20",
    "population": 2747,
    "lat": 1.0595,
    "lon": -77.56554,
    "selectable": false
  },
  {
    "name": "Ortega",
    "country": "CO",
    "featureCode": "PPL",
    "adminCode": "28",
    "population": 6871,
    "lat": 3.9361,
    "lon": -75.22169,
    "selectable": false
  },
  {
    "name": "Orocué",
    "country": "CO",
    "featureCode": "PPL",
    "adminCode": "32",
    "population": 2835,
    "lat": 4.79118,
    "lon": -71.33542,
    "selectable": false
  },
  {
    "name": "Oporapa",
    "country": "CO",
    "featureCode": "PPL",
    "adminCode": "16",
    "population": 2310,
    "lat": 2.05015,
    "lon": -75.97675,
    "selectable": false
  },
  {
    "name": "Onzaga",
    "country": "CO",
    "featureCode": "PPL",
    "adminCode": "26",
    "population": 1393,
    "lat": 6.34434,
    "lon": -72.81726,
    "selectable": false
  },
  {
    "name": "Olaya Herrera",
    "country": "CO",
    "featureCode": "PPL",
    "adminCode": "20",
    "population": 9820,
    "lat": 1.24803,
    "lon": -77.49086,
    "selectable": false
  },
  {
    "name": "Oiba",
    "country": "CO",
    "featureCode": "PPL",
    "adminCode": "26",
    "population": 3959,
    "lat": 6.26388,
    "lon": -73.29876,
    "selectable": false
  },
  {
    "name": "Ocaña",
    "country": "CO",
    "featureCode": "PPL",
    "adminCode": "21",
    "population": 83511,
    "lat": 8.23773,
    "lon": -73.35604,
    "selectable": false
  },
  {
    "name": "Obando",
    "country": "CO",
    "featureCode": "PPLA2",
    "adminCode": "29",
    "population": 7298,
    "lat": 4.57583,
    "lon": -75.97389,
    "selectable": false
  },
  {
    "name": "Nuquí",
    "country": "CO",
    "featureCode": "PPL",
    "adminCode": "11",
    "population": 2741,
    "lat": 5.7125,
    "lon": -77.27083,
    "selectable": false
  },
  {
    "name": "Nunchía",
    "country": "CO",
    "featureCode": "PPL",
    "adminCode": "32",
    "population": 1282,
    "lat": 5.64056,
    "lon": -72.19861,
    "selectable": false
  },
  {
    "name": "Nueva Granada",
    "country": "CO",
    "featureCode": "PPL",
    "adminCode": "38",
    "population": 2714,
    "lat": 9.80168,
    "lon": -74.39304,
    "selectable": false
  },
  {
    "name": "Nóvita",
    "country": "CO",
    "featureCode": "PPL",
    "adminCode": "11",
    "population": 1898,
    "lat": 4.95511,
    "lon": -76.60526,
    "selectable": false
  },
  {
    "name": "Norcasia",
    "country": "CO",
    "featureCode": "PPL",
    "adminCode": "37",
    "population": 5976,
    "lat": 5.57782,
    "lon": -74.88521,
    "selectable": false
  },
  {
    "name": "Nocaima",
    "country": "CO",
    "featureCode": "PPL",
    "adminCode": "33",
    "population": 2475,
    "lat": 5.06983,
    "lon": -74.378,
    "selectable": false
  },
  {
    "name": "Nobsa",
    "country": "CO",
    "featureCode": "PPL",
    "adminCode": "36",
    "population": 3360,
    "lat": 5.76978,
    "lon": -72.94099,
    "selectable": false
  },
  {
    "name": "Nilo",
    "country": "CO",
    "featureCode": "PPL",
    "adminCode": "33",
    "population": 1117,
    "lat": 4.30604,
    "lon": -74.62083,
    "selectable": false
  },
  {
    "name": "Nemocón",
    "country": "CO",
    "featureCode": "PPL",
    "adminCode": "33",
    "population": 5466,
    "lat": 5.05,
    "lon": -73.88333,
    "selectable": false
  },
  {
    "name": "Neiva",
    "country": "CO",
    "featureCode": "PPLA",
    "adminCode": "16",
    "population": 352855,
    "lat": 2.9273,
    "lon": -75.28188,
    "selectable": false
  },
  {
    "name": "Neira",
    "country": "CO",
    "featureCode": "PPL",
    "adminCode": "37",
    "population": 11755,
    "lat": 5.1665,
    "lon": -75.52001,
    "selectable": false
  },
  {
    "name": "Necoclí",
    "country": "CO",
    "featureCode": "PPL",
    "adminCode": "02",
    "population": 10835,
    "lat": 8.42342,
    "lon": -76.78597,
    "selectable": false
  },
  {
    "name": "Nechí",
    "country": "CO",
    "featureCode": "PPL",
    "adminCode": "02",
    "population": 6693,
    "lat": 8.09419,
    "lon": -74.77573,
    "selectable": false
  },
  {
    "name": "Natagaima",
    "country": "CO",
    "featureCode": "PPL",
    "adminCode": "28",
    "population": 11217,
    "lat": 3.62057,
    "lon": -75.09415,
    "selectable": false
  },
  {
    "name": "Nátaga",
    "country": "CO",
    "featureCode": "PPL",
    "adminCode": "16",
    "population": 2232,
    "lat": 2.54359,
    "lon": -75.80852,
    "selectable": false
  },
  {
    "name": "Nariño",
    "country": "CO",
    "featureCode": "PPL",
    "adminCode": "02",
    "population": 3186,
    "lat": 5.60893,
    "lon": -75.17656,
    "selectable": false
  },
  {
    "name": "Nariño",
    "country": "CO",
    "featureCode": "PPL",
    "adminCode": "33",
    "population": 1213,
    "lat": 4.39781,
    "lon": -74.82731,
    "selectable": false
  },
  {
    "name": "Nariño",
    "country": "CO",
    "featureCode": "PPL",
    "adminCode": "20",
    "population": 2933,
    "lat": 1.28995,
    "lon": -77.35722,
    "selectable": false
  },
  {
    "name": "Muzo",
    "country": "CO",
    "featureCode": "PPL",
    "adminCode": "36",
    "population": 7977,
    "lat": 5.53528,
    "lon": -74.10778,
    "selectable": false
  },
  {
    "name": "Mutatá",
    "country": "CO",
    "featureCode": "PPL",
    "adminCode": "02",
    "population": 4811,
    "lat": 7.24407,
    "lon": -76.43564,
    "selectable": false
  },
  {
    "name": "Murindó",
    "country": "CO",
    "featureCode": "PPL",
    "adminCode": "02",
    "population": 2372,
    "lat": 6.98481,
    "lon": -76.75439,
    "selectable": false
  },
  {
    "name": "Murillo",
    "country": "CO",
    "featureCode": "PPL",
    "adminCode": "28",
    "population": 1860,
    "lat": 4.87393,
    "lon": -75.17151,
    "selectable": false
  },
  {
    "name": "Mountain",
    "country": "CO",
    "featureCode": "PPL",
    "adminCode": "25",
    "population": 2404,
    "lat": 13.36667,
    "lon": -81.36667,
    "selectable": false
  },
  {
    "name": "Mosquera",
    "country": "CO",
    "featureCode": "PPL",
    "adminCode": "33",
    "population": 27005,
    "lat": 4.70592,
    "lon": -74.23021,
    "selectable": false
  },
  {
    "name": "Mosquera",
    "country": "CO",
    "featureCode": "PPL",
    "adminCode": "20",
    "population": 3471,
    "lat": 2.50861,
    "lon": -78.4511,
    "selectable": false
  },
  {
    "name": "Morroa",
    "country": "CO",
    "featureCode": "PPL",
    "adminCode": "27",
    "population": 4949,
    "lat": 9.33348,
    "lon": -75.30542,
    "selectable": false
  },
  {
    "name": "Morelia",
    "country": "CO",
    "featureCode": "PPL",
    "adminCode": "08",
    "population": 2257,
    "lat": 1.48747,
    "lon": -75.72581,
    "selectable": false
  },
  {
    "name": "Morales",
    "country": "CO",
    "featureCode": "PPL",
    "adminCode": "35",
    "population": 20375,
    "lat": 8.2752,
    "lon": -73.86884,
    "selectable": false
  },
  {
    "name": "Montería",
    "country": "CO",
    "featureCode": "PPLA",
    "adminCode": "12",
    "population": 272420,
    "lat": 8.74798,
    "lon": -75.88143,
    "selectable": false
  },
  {
    "name": "Montenegro",
    "country": "CO",
    "featureCode": "PPL",
    "adminCode": "23",
    "population": 36499,
    "lat": 4.56639,
    "lon": -75.75111,
    "selectable": false
  },
  {
    "name": "Montelíbano",
    "country": "CO",
    "featureCode": "PPL",
    "adminCode": "12",
    "population": 85000,
    "lat": 7.97917,
    "lon": -75.4202,
    "selectable": false
  },
  {
    "name": "Montecristo",
    "country": "CO",
    "featureCode": "PPL",
    "adminCode": "35",
    "population": 5608,
    "lat": 8.2971,
    "lon": -74.4733,
    "selectable": false
  },
  {
    "name": "Montebello",
    "country": "CO",
    "featureCode": "PPL",
    "adminCode": "02",
    "population": 2007,
    "lat": 5.94806,
    "lon": -75.5275,
    "selectable": false
  },
  {
    "name": "Moñitos",
    "country": "CO",
    "featureCode": "PPL",
    "adminCode": "12",
    "population": 5385,
    "lat": 8.25,
    "lon": -76.05,
    "selectable": false
  },
  {
    "name": "Moniquirá",
    "country": "CO",
    "featureCode": "PPL",
    "adminCode": "36",
    "population": 9785,
    "lat": 5.87638,
    "lon": -73.57284,
    "selectable": false
  },
  {
    "name": "Monguí",
    "country": "CO",
    "featureCode": "PPL",
    "adminCode": "36",
    "population": 2299,
    "lat": 5.72151,
    "lon": -72.84908,
    "selectable": false
  },
  {
    "name": "Mongua",
    "country": "CO",
    "featureCode": "PPL",
    "adminCode": "36",
    "population": 2322,
    "lat": 5.75084,
    "lon": -72.80339,
    "selectable": false
  },
  {
    "name": "Mompós",
    "country": "CO",
    "featureCode": "PPL",
    "adminCode": "35",
    "population": 30861,
    "lat": 9.24194,
    "lon": -74.42667,
    "selectable": false
  },
  {
    "name": "Momil",
    "country": "CO",
    "featureCode": "PPL",
    "adminCode": "12",
    "population": 6441,
    "lat": 9.23768,
    "lon": -75.67489,
    "selectable": false
  },
  {
    "name": "Molagavita",
    "country": "CO",
    "featureCode": "PPL",
    "adminCode": "26",
    "population": 1205,
    "lat": 6.67315,
    "lon": -72.80875,
    "selectable": false
  },
  {
    "name": "Mogotes",
    "country": "CO",
    "featureCode": "PPL",
    "adminCode": "26",
    "population": 3438,
    "lat": 6.47559,
    "lon": -72.97046,
    "selectable": false
  },
  {
    "name": "Mocoa",
    "country": "CO",
    "featureCode": "PPLA",
    "adminCode": "22",
    "population": 22035,
    "lat": 1.14933,
    "lon": -76.64661,
    "selectable": false
  },
  {
    "name": "Mitú",
    "country": "CO",
    "featureCode": "PPLA",
    "adminCode": "30",
    "population": 5917,
    "lat": 1.19833,
    "lon": -70.17333,
    "selectable": false
  },
  {
    "name": "Mistrató",
    "country": "CO",
    "featureCode": "PPL",
    "adminCode": "24",
    "population": 6263,
    "lat": 5.2973,
    "lon": -75.88322,
    "selectable": false
  },
  {
    "name": "Miranda",
    "country": "CO",
    "featureCode": "PPLA2",
    "adminCode": "09",
    "population": 13223,
    "lat": 3.24991,
    "lon": -76.22814,
    "selectable": false
  },
  {
    "name": "Miraflores",
    "country": "CO",
    "featureCode": "PPL",
    "adminCode": "36",
    "population": 2766,
    "lat": 5.19608,
    "lon": -73.14504,
    "selectable": false
  },
  {
    "name": "Miraflores",
    "country": "CO",
    "featureCode": "PPL",
    "adminCode": "14",
    "population": 4864,
    "lat": 1.33667,
    "lon": -71.95111,
    "selectable": false
  },
  {
    "name": "Milán",
    "country": "CO",
    "featureCode": "PPL",
    "adminCode": "08",
    "population": 2618,
    "lat": 1.29205,
    "lon": -75.51167,
    "selectable": false
  },
  {
    "name": "Mercaderes",
    "country": "CO",
    "featureCode": "PPL",
    "adminCode": "09",
    "population": 4684,
    "lat": 1.80094,
    "lon": -77.16596,
    "selectable": false
  },
  {
    "name": "Melgar",
    "country": "CO",
    "featureCode": "PPL",
    "adminCode": "28",
    "population": 25980,
    "lat": 4.20475,
    "lon": -74.64075,
    "selectable": false
  },
  {
    "name": "Medina",
    "country": "CO",
    "featureCode": "PPL",
    "adminCode": "33",
    "population": 3098,
    "lat": 4.51005,
    "lon": -73.34982,
    "selectable": false
  },
  {
    "name": "Medellín",
    "country": "CO",
    "featureCode": "PPLA",
    "adminCode": "02",
    "population": 1999979,
    "lat": 6.25184,
    "lon": -75.56359,
    "selectable": true
  },
  {
    "name": "Matanza",
    "country": "CO",
    "featureCode": "PPL",
    "adminCode": "26",
    "population": 1669,
    "lat": 7.32233,
    "lon": -73.01516,
    "selectable": false
  },
  {
    "name": "Marulanda",
    "country": "CO",
    "featureCode": "PPL",
    "adminCode": "37",
    "population": 1256,
    "lat": 5.28393,
    "lon": -75.26016,
    "selectable": false
  },
  {
    "name": "Marsella",
    "country": "CO",
    "featureCode": "PPL",
    "adminCode": "24",
    "population": 11158,
    "lat": 4.93722,
    "lon": -75.73778,
    "selectable": false
  },
  {
    "name": "Marquetalia",
    "country": "CO",
    "featureCode": "PPL",
    "adminCode": "37",
    "population": 6224,
    "lat": 5.29659,
    "lon": -75.05496,
    "selectable": false
  },
  {
    "name": "Marmato",
    "country": "CO",
    "featureCode": "PPL",
    "adminCode": "37",
    "population": 1456,
    "lat": 5.47843,
    "lon": -75.59267,
    "selectable": false
  },
  {
    "name": "Mariquita",
    "country": "CO",
    "featureCode": "PPL",
    "adminCode": "28",
    "population": 23104,
    "lat": 5.19889,
    "lon": -74.89295,
    "selectable": false
  },
  {
    "name": "Maripí",
    "country": "CO",
    "featureCode": "PPL",
    "adminCode": "36",
    "population": 1143,
    "lat": 5.55194,
    "lon": -74.00861,
    "selectable": false
  },
  {
    "name": "Marinilla",
    "country": "CO",
    "featureCode": "PPL",
    "adminCode": "02",
    "population": 24171,
    "lat": 6.17358,
    "lon": -75.33621,
    "selectable": false
  },
  {
    "name": "María la Baja",
    "country": "CO",
    "featureCode": "PPL",
    "adminCode": "35",
    "population": 23401,
    "lat": 9.9832,
    "lon": -75.30155,
    "selectable": false
  },
  {
    "name": "Margarita",
    "country": "CO",
    "featureCode": "PPL",
    "adminCode": "35",
    "population": 1939,
    "lat": 9.15596,
    "lon": -74.26618,
    "selectable": false
  },
  {
    "name": "Manzanares",
    "country": "CO",
    "featureCode": "PPL",
    "adminCode": "37",
    "population": 16278,
    "lat": 5.32472,
    "lon": -75.15694,
    "selectable": false
  },
  {
    "name": "Manta",
    "country": "CO",
    "featureCode": "PPL",
    "adminCode": "33",
    "population": 1410,
    "lat": 5.00864,
    "lon": -73.54115,
    "selectable": false
  },
  {
    "name": "Manizales",
    "country": "CO",
    "featureCode": "PPLA",
    "adminCode": "37",
    "population": 357814,
    "lat": 5.06889,
    "lon": -75.51738,
    "selectable": false
  },
  {
    "name": "Maní",
    "country": "CO",
    "featureCode": "PPL",
    "adminCode": "32",
    "population": 7031,
    "lat": 4.81722,
    "lon": -72.28861,
    "selectable": false
  },
  {
    "name": "Manaure",
    "country": "CO",
    "featureCode": "PPL",
    "adminCode": "17",
    "population": 9703,
    "lat": 11.77505,
    "lon": -72.44447,
    "selectable": false
  },
  {
    "name": "Manatí",
    "country": "CO",
    "featureCode": "PPL",
    "adminCode": "04",
    "population": 14140,
    "lat": 10.44589,
    "lon": -74.95869,
    "selectable": false
  },
  {
    "name": "Malambo",
    "country": "CO",
    "featureCode": "PPL",
    "adminCode": "04",
    "population": 101534,
    "lat": 10.85953,
    "lon": -74.77386,
    "selectable": false
  },
  {
    "name": "Málaga",
    "country": "CO",
    "featureCode": "PPL",
    "adminCode": "26",
    "population": 18739,
    "lat": 6.69903,
    "lon": -72.73233,
    "selectable": false
  },
  {
    "name": "Majagual",
    "country": "CO",
    "featureCode": "PPL",
    "adminCode": "27",
    "population": 11139,
    "lat": 8.53886,
    "lon": -74.62038,
    "selectable": false
  },
  {
    "name": "Maicao",
    "country": "CO",
    "featureCode": "PPL",
    "adminCode": "17",
    "population": 130348,
    "lat": 11.38321,
    "lon": -72.24321,
    "selectable": false
  },
  {
    "name": "Mahates",
    "country": "CO",
    "featureCode": "PPL",
    "adminCode": "35",
    "population": 9224,
    "lat": 10.23293,
    "lon": -75.18985,
    "selectable": false
  },
  {
    "name": "Magangué",
    "country": "CO",
    "featureCode": "PPL",
    "adminCode": "35",
    "population": 100313,
    "lat": 9.24202,
    "lon": -74.75467,
    "selectable": false
  },
  {
    "name": "Madrid",
    "country": "CO",
    "featureCode": "PPL",
    "adminCode": "33",
    "population": 50437,
    "lat": 4.73244,
    "lon": -74.26419,
    "selectable": false
  },
  {
    "name": "Machetá",
    "country": "CO",
    "featureCode": "PPL",
    "adminCode": "33",
    "population": 1742,
    "lat": 5.08154,
    "lon": -73.60761,
    "selectable": false
  },
  {
    "name": "Maceo",
    "country": "CO",
    "featureCode": "PPL",
    "adminCode": "02",
    "population": 3109,
    "lat": 6.55196,
    "lon": -74.78742,
    "selectable": false
  },
  {
    "name": "Luruaco",
    "country": "CO",
    "featureCode": "PPL",
    "adminCode": "04",
    "population": 13236,
    "lat": 10.60921,
    "lon": -75.14309,
    "selectable": false
  },
  {
    "name": "Lourdes",
    "country": "CO",
    "featureCode": "PPL",
    "adminCode": "21",
    "population": 1500,
    "lat": 7.94411,
    "lon": -72.83253,
    "selectable": false
  },
  {
    "name": "Los Patios",
    "country": "CO",
    "featureCode": "PPL",
    "adminCode": "21",
    "population": 58661,
    "lat": 7.83793,
    "lon": -72.5037,
    "selectable": false
  },
  {
    "name": "Los Palmitos",
    "country": "CO",
    "featureCode": "PPL",
    "adminCode": "27",
    "population": 14385,
    "lat": 9.37899,
    "lon": -75.26769,
    "selectable": false
  },
  {
    "name": "Los Córdobas",
    "country": "CO",
    "featureCode": "PPL",
    "adminCode": "12",
    "population": 2007,
    "lat": 8.89403,
    "lon": -76.35455,
    "selectable": false
  },
  {
    "name": "Lorica",
    "country": "CO",
    "featureCode": "PPL",
    "adminCode": "12",
    "population": 40605,
    "lat": 9.23648,
    "lon": -75.8135,
    "selectable": false
  },
  {
    "name": "López",
    "country": "CO",
    "featureCode": "PPL",
    "adminCode": "09",
    "population": 3699,
    "lat": 2.43333,
    "lon": -76.8,
    "selectable": false
  },
  {
    "name": "Lloró",
    "country": "CO",
    "featureCode": "PPL",
    "adminCode": "11",
    "population": 2651,
    "lat": 5.49605,
    "lon": -76.54945,
    "selectable": false
  },
  {
    "name": "Linares",
    "country": "CO",
    "featureCode": "PPL",
    "adminCode": "20",
    "population": 3512,
    "lat": 1.35783,
    "lon": -77.52725,
    "selectable": false
  },
  {
    "name": "Liborina",
    "country": "CO",
    "featureCode": "PPL",
    "adminCode": "02",
    "population": 2373,
    "lat": 6.6779,
    "lon": -75.81218,
    "selectable": false
  },
  {
    "name": "Líbano",
    "country": "CO",
    "featureCode": "PPL",
    "adminCode": "28",
    "population": 28211,
    "lat": 4.9218,
    "lon": -75.06232,
    "selectable": false
  },
  {
    "name": "Leticia",
    "country": "CO",
    "featureCode": "PPLA",
    "adminCode": "01",
    "population": 29666,
    "lat": -4.21528,
    "lon": -69.94056,
    "selectable": false
  },
  {
    "name": "Lérida",
    "country": "CO",
    "featureCode": "PPL",
    "adminCode": "28",
    "population": 20069,
    "lat": 4.86242,
    "lon": -74.90977,
    "selectable": false
  },
  {
    "name": "Lenguazaque",
    "country": "CO",
    "featureCode": "PPL",
    "adminCode": "33",
    "population": 2555,
    "lat": 5.30711,
    "lon": -73.71152,
    "selectable": false
  },
  {
    "name": "Leiva",
    "country": "CO",
    "featureCode": "PPL",
    "adminCode": "20",
    "population": 3668,
    "lat": 1.93389,
    "lon": -77.30253,
    "selectable": false
  },
  {
    "name": "Lebrija",
    "country": "CO",
    "featureCode": "PPL",
    "adminCode": "26",
    "population": 8949,
    "lat": 7.11317,
    "lon": -73.2178,
    "selectable": false
  },
  {
    "name": "La Virginia",
    "country": "CO",
    "featureCode": "PPL",
    "adminCode": "24",
    "population": 33835,
    "lat": 4.89972,
    "lon": -75.8825,
    "selectable": false
  },
  {
    "name": "La Victoria",
    "country": "CO",
    "featureCode": "PPL",
    "adminCode": "29",
    "population": 11064,
    "lat": 4.52271,
    "lon": -76.03738,
    "selectable": false
  },
  {
    "name": "La Vega",
    "country": "CO",
    "featureCode": "PPL",
    "adminCode": "33",
    "population": 5706,
    "lat": 4.99779,
    "lon": -74.33979,
    "selectable": false
  },
  {
    "name": "La Vega",
    "country": "CO",
    "featureCode": "PPL",
    "adminCode": "09",
    "population": 3469,
    "lat": 2.00628,
    "lon": -76.78028,
    "selectable": false
  },
  {
    "name": "La Uvita",
    "country": "CO",
    "featureCode": "PPL",
    "adminCode": "36",
    "population": 1708,
    "lat": 6.31684,
    "lon": -72.56032,
    "selectable": false
  },
  {
    "name": "La Unión",
    "country": "CO",
    "featureCode": "PPL",
    "adminCode": "27",
    "population": 4427,
    "lat": 8.86056,
    "lon": -75.28056,
    "selectable": false
  },
  {
    "name": "La Unión",
    "country": "CO",
    "featureCode": "PPL",
    "adminCode": "02",
    "population": 8361,
    "lat": 5.97431,
    "lon": -75.36195,
    "selectable": false
  },
  {
    "name": "La Unión",
    "country": "CO",
    "featureCode": "PPLA2",
    "adminCode": "29",
    "population": 23459,
    "lat": 4.53282,
    "lon": -76.10318,
    "selectable": false
  },
  {
    "name": "La Unión",
    "country": "CO",
    "featureCode": "PPL",
    "adminCode": "20",
    "population": 15061,
    "lat": 1.6045,
    "lon": -77.13152,
    "selectable": false
  },
  {
    "name": "La Tebaida",
    "country": "CO",
    "featureCode": "PPLA2",
    "adminCode": "23",
    "population": 27098,
    "lat": 4.45265,
    "lon": -75.78746,
    "selectable": false
  },
  {
    "name": "La Sierra",
    "country": "CO",
    "featureCode": "PPL",
    "adminCode": "09",
    "population": 2129,
    "lat": 2.17835,
    "lon": -76.76265,
    "selectable": false
  },
  {
    "name": "La Primavera",
    "country": "CO",
    "featureCode": "PPL",
    "adminCode": "31",
    "population": 3920,
    "lat": 5.49056,
    "lon": -70.40917,
    "selectable": false
  },
  {
    "name": "La Playa",
    "country": "CO",
    "featureCode": "PPL",
    "adminCode": "21",
    "population": 1215,
    "lat": 8.21639,
    "lon": -73.24139,
    "selectable": false
  },
  {
    "name": "La Plata",
    "country": "CO",
    "featureCode": "PPL",
    "adminCode": "16",
    "population": 19275,
    "lat": 2.39341,
    "lon": -75.89232,
    "selectable": false
  },
  {
    "name": "La Pintada",
    "country": "CO",
    "featureCode": "PPL",
    "adminCode": "02",
    "population": 5342,
    "lat": 5.74867,
    "lon": -75.60626,
    "selectable": false
  },
  {
    "name": "La Peña",
    "country": "CO",
    "featureCode": "PPL",
    "adminCode": "33",
    "population": 1667,
    "lat": 5.19847,
    "lon": -74.39368,
    "selectable": false
  },
  {
    "name": "La Paz",
    "country": "CO",
    "featureCode": "PPL",
    "adminCode": "10",
    "population": 13249,
    "lat": 10.38439,
    "lon": -73.17332,
    "selectable": false
  },
  {
    "name": "La Paz",
    "country": "CO",
    "featureCode": "PPL",
    "adminCode": "26",
    "population": 1135,
    "lat": 6.17848,
    "lon": -73.58948,
    "selectable": false
  },
  {
    "name": "Landázuri",
    "country": "CO",
    "featureCode": "PPL",
    "adminCode": "26",
    "population": 3483,
    "lat": 6.21826,
    "lon": -73.81121,
    "selectable": false
  },
  {
    "name": "La Montañita",
    "country": "CO",
    "featureCode": "PPL",
    "adminCode": "08",
    "population": 3305,
    "lat": 1.4766,
    "lon": -75.4398,
    "selectable": false
  },
  {
    "name": "La Mesa",
    "country": "CO",
    "featureCode": "PPL",
    "adminCode": "33",
    "population": 26699,
    "lat": 5.26667,
    "lon": -73.91667,
    "selectable": false
  },
  {
    "name": "La Merced",
    "country": "CO",
    "featureCode": "PPL",
    "adminCode": "24",
    "population": 3851,
    "lat": 5.40194,
    "lon": -75.88472,
    "selectable": false
  },
  {
    "name": "La Llanada",
    "country": "CO",
    "featureCode": "PPL",
    "adminCode": "20",
    "population": 2747,
    "lat": 1.48997,
    "lon": -77.58347,
    "selectable": false
  },
  {
    "name": "La Jagua de Ibirico",
    "country": "CO",
    "featureCode": "PPL",
    "adminCode": "10",
    "population": 18555,
    "lat": 9.56228,
    "lon": -73.33405,
    "selectable": false
  },
  {
    "name": "La Gloria",
    "country": "CO",
    "featureCode": "PPL",
    "adminCode": "10",
    "population": 6810,
    "lat": 8.61868,
    "lon": -73.80265,
    "selectable": false
  },
  {
    "name": "La Florida",
    "country": "CO",
    "featureCode": "PPL",
    "adminCode": "20",
    "population": 2882,
    "lat": 1.29851,
    "lon": -77.40614,
    "selectable": false
  },
  {
    "name": "La Estrella",
    "country": "CO",
    "featureCode": "PPL",
    "adminCode": "02",
    "population": 49386,
    "lat": 6.15769,
    "lon": -75.64317,
    "selectable": false
  },
  {
    "name": "La Esperanza",
    "country": "CO",
    "featureCode": "PPL",
    "adminCode": "21",
    "population": 2718,
    "lat": 8.21043,
    "lon": -72.46399,
    "selectable": false
  },
  {
    "name": "La Dorada",
    "country": "CO",
    "featureCode": "PPL",
    "adminCode": "37",
    "population": 81950,
    "lat": 5.44783,
    "lon": -74.66311,
    "selectable": false
  },
  {
    "name": "La Cruz",
    "country": "CO",
    "featureCode": "PPL",
    "adminCode": "09",
    "population": 8751,
    "lat": 1.60301,
    "lon": -76.96901,
    "selectable": false
  },
  {
    "name": "La Celia",
    "country": "CO",
    "featureCode": "PPL",
    "adminCode": "24",
    "population": 4940,
    "lat": 5.04333,
    "lon": -76.01667,
    "selectable": false
  },
  {
    "name": "La Ceja",
    "country": "CO",
    "featureCode": "PPL",
    "adminCode": "02",
    "population": 36584,
    "lat": 6.03082,
    "lon": -75.4315,
    "selectable": false
  },
  {
    "name": "La Capilla",
    "country": "CO",
    "featureCode": "PPL",
    "adminCode": "36",
    "population": 1375,
    "lat": 5.70493,
    "lon": -73.47527,
    "selectable": false
  },
  {
    "name": "La Calera",
    "country": "CO",
    "featureCode": "PPL",
    "adminCode": "33",
    "population": 10175,
    "lat": 4.72069,
    "lon": -73.96926,
    "selectable": false
  },
  {
    "name": "La Belleza",
    "country": "CO",
    "featureCode": "PPL",
    "adminCode": "26",
    "population": 1649,
    "lat": 5.86371,
    "lon": -73.96167,
    "selectable": false
  },